cód.;Escola;endereco;num;bairro;municipio;DDD;Telefone;CEP;E-mail;Dependência;endereco_completo;lat;lng
12203;CEDUP ABILIO PAULO;AVENIDA UNIVERSITARIA;345;UNIVERSITARIO;CRICIÚMA;48.0;34031609;88806000;cedupcriciuma@sed.sc.gov.br;Estaduais;AVENIDA UNIVERSITARIA, 345 - UNIVERSITARIO, CRICIÚMA - SC, 88806000;-28.70101;-49.41133
32131;CEDUP CAETANO COSTA;BR 282 KM 246;0;ITARARE;SÃO JOSÉ DO CERRITO;49.0;88081661;88570000;seriedh27cedupccosta@sed.sc.gov.br;Estaduais;BR 282 KM 246, 0 - ITARARE, SÃO JOSÉ DO CERRITO - SC, 88570000;-27.62472;-50.65612
103225;CEDUP CAMPO ERE;FAZENDA PRIMAVERA SC 160 KM 07;0;INTERIOR;CAMPO ERÊ;49.0;36551268;89980000;cedupcampoere@sed.sc.gov.br;Estaduais;FAZENDA PRIMAVERA SC 160 KM 07, 0 - INTERIOR, CAMPO ERÊ - SC, 89980000;-26.47316;-53.07205
20508;CEDUP DARIO GERALDO SALLES;R MONSENHOR GERCINO;2071;ITAUM;JOINVILLE;47.0;34812135;89210155;diretor20508@sed.sc.gov.br;Estaduais;R MONSENHOR GERCINO, 2071 - ITAUM, JOINVILLE - SC, 89210155;-26.33478;-48.82915
700320;CEDUP DE CHAPECÓ;R ASSIS BRASIL;119;MARIA GORETTI;CHAPECÓ;49.0;33220447;89801222;cedupchapeco@sed.sc.gov.br;Estaduais;R ASSIS BRASIL, 119 - MARIA GORETTI, CHAPECÓ - SC, 89801222;-27.1038;-52.60496
139661;CEDUP DE TIMBO;RUA SÃO BENTO;277;QUINTINO;TIMBÓ;47.0;33993026;89120000;ceduptimbo@sed.sc.gov.br;Estaduais;RUA SÃO BENTO, 277 - QUINTINO, TIMBÓ - SC, 89120000;-26.83619;-49.26224
6718;CEDUP DIOMICIO FREITAS;RUA JULIO BOPPRE;1280;SANTO ANTONIO DE PADUA;TUBARÃO;48.0;36319706;88701510;seriedh20cedupdfreitas@sed.sc.gov.br;Estaduais;RUA JULIO BOPPRE, 1280 - SANTO ANTONIO DE PADUA, TUBARÃO - SC, 88701510;-28.49351;-49.00651
700029;CEDUP DR JORGE LACERDA;RUA GENERAL BITTENCOURT;234;CENTRO;FLORIANÓPOLIS;48.0;36657591;88020100;cedupfloripa@sed.sc.gov.br;Estaduais;RUA GENERAL BITTENCOURT, 234 - CENTRO, FLORIANÓPOLIS - SC, 88020100;-27.59764;-48.5465
155195;CEDUP ERNESTO ANTONIO DEBASTIANI;RODOVIA DEJANDIR DALPASQUALE SCV 284 KM 240;0;LINHA ZANCHETTI;ABDON BATISTA;49.0;35413341;89636000;cedup_ernesto@sed.sc.gov.br;Estaduais;RODOVIA DEJANDIR DALPASQUALE SCV 284 KM 240, 0 - LINHA ZANCHETTI, ABDON BATISTA - SC, 89636000;-27.60995;-51.0258
104612;CEDUP GETULIO VARGAS;LINHA CRUZINHAS;0;INTERIOR;SÃO MIGUEL DO OESTE;49.0;31978031;89900000;cedupsmo@sed.sc.gov.br;Estaduais;LINHA CRUZINHAS, 0 - INTERIOR, SÃO MIGUEL DO OESTE - SC, 89900000;-26.72543;-53.52175
15989;CEDUP HERMANN HERING;RUA BENJAMIN CONSTANT;857;ESCOLA AGRICOLA;BLUMENAU;47.0;33788610;89037501;ceduphh@sed.sc.gov.br;Estaduais;RUA BENJAMIN CONSTANT, 857 - ESCOLA AGRICOLA, BLUMENAU - SC, 89037501;-26.89394;-49.09848
139688;CEDUP INDUSTRIAL DE LAGES;AVENIDA DOM PEDRO II;2555;VILA NOVA;LAGES;49.0;32898308;88503100;seriedh27ceduplages@sed.sc.gov.br;Estaduais;AVENIDA DOM PEDRO II, 2555 - VILA NOVA, LAGES - SC, 88503100;-27.82536;-50.32528
155918;CEDUP JOSÉ BUSS;ESTRADA GERAL RIO OTÍLIA;165;RIO OTÍLIA;RIO FORTUNA;48.0;36511829;88760000;diretor155918@sed.sc.gov.br;Estaduais;ESTRADA GERAL RIO OTÍLIA, 165 - RIO OTÍLIA, RIO FORTUNA - SC, 88760000;-28.13937;-49.1113
155926;CEDUP PADRE AFONSO ROBL;AVENIDA PREFEITO ORNITH BOLLMANN;561;BRASÍLIA;SÃO BENTO DO SUL;47.0;36470565;89282425;cedupsbs@sed.sc.gov.br;Estaduais;AVENIDA PREFEITO ORNITH BOLLMANN, 561 - BRASÍLIA, SÃO BENTO DO SUL - SC, 89282425;-26.22689;-49.34645
155179;CEDUP PERFEITO MANOEL DE AGUIAR;ROD BR 280 K 53 C;0;AVAÍ;GUARAMIRIM;47.0;32769270;89270000;cedupguaramirim@sed.sc.gov.br;Estaduais;ROD BR 280 K 53 C, 0 - AVAÍ, GUARAMIRIM - SC, 89270000;-26.47183;-48.97274
42447;CEDUP PROF JALDYR BHERING FAUSTINO DA SILVA;LINHA MACAGNAN;0;INTERIOR;ÁGUA DOCE;49.0;35240133;89654000;cedupaguadoce@sed.sc.gov.br;Estaduais;LINHA MACAGNAN, 0 - INTERIOR, ÁGUA DOCE - SC, 89654000;-26.99995;-51.55855
155934;CEDUP PROFESSOR ENORI POZZO;AVENIDA ADVOGADO SEBASTIÃO CALOMENO;450;SÃO FRANCISCO;CURITIBANOS;49.0;34123027;89520000;ceduppozzo@sed.sc.gov.br;Estaduais;AVENIDA ADVOGADO SEBASTIÃO CALOMENO, 450 - SÃO FRANCISCO, CURITIBANOS - SC, 89520000;-27.28994;-50.58943
138738;CEDUP PROFESSOR LYCURGO ALEIXO NORA;RUA ESTANISLAU MAIERSKI;0;VILA NOVA;MAFRA;47.0;36470538;89304178;cedupmafra@sed.sc.gov.br;Estaduais;RUA ESTANISLAU MAIERSKI, 0 - VILA NOVA, MAFRA - SC, 89304178;-26.1316;-49.82423
29963;CEDUP RENATO RAMOS DA SILVA;AV.CASTELO BRANCO;109;UNIVERSITARIO;LAGES;49.0;32898250;88509015;seriedh27ceduprsilva@sed.sc.gov.br;Estaduais;AV.CASTELO BRANCO, 109 - UNIVERSITARIO, LAGES - SC, 88509015;-27.82124;-50.31996
89907;CEDUP VIDAL RAMOS;RUA MARIA OLSEN;0;MARCILIO DIAS;CANOINHAS;47.0;36224050;89465250;cedupcanoinhas@sed.sc.gov.br;Estaduais;RUA MARIA OLSEN, 0 - MARCILIO DIAS, CANOINHAS - SC, 89465250;-26.13464;-50.38928
110906;CEI VIDA E MOVIMENTO;MADRE BENVENUTA;265;TRINDADE;FLORIANÓPOLIS;48.0;3331-1961;88036500;;Estaduais;MADRE BENVENUTA, 265 - TRINDADE, FLORIANÓPOLIS - SC, 88036500;-27.59238;-48.51936
701416;CEJA DE ARARANGUA;RUA PREFEITO ANTONIO RAUPP;370;VILA SÃO JOSÉ;ARARANGUÁ;48.0;35290288;88900228;ceja22@sed.sc.gov.br;Estaduais;RUA PREFEITO ANTONIO RAUPP, 370 - VILA SÃO JOSÉ, ARARANGUÁ - SC, 88900228;-28.92451;-49.48058
704326;CEJA DE BALNEARIO CAMBORIU;RUA JULIETA LINS;685;PIONEIROS;BALNEÁRIO CAMBORIÚ;47.0;33986042;88331010;cejabalneariocamboriu@sed.sc.gov.br;Estaduais;RUA JULIETA LINS, 685 - PIONEIROS, BALNEÁRIO CAMBORIÚ - SC, 88331010;-26.97082;-48.63792
700525;CEJA DE BLUMENAU;RUA ENGENHEIRO PAUL WERNER;608;ITOUPAVA SECA;BLUMENAU;47.0;33788687;89030100;cejablu@sed.sc.gov.br;Estaduais;RUA ENGENHEIRO PAUL WERNER, 608 - ITOUPAVA SECA, BLUMENAU - SC, 89030100;-26.89743;-49.08117
700800;CEJA DE BRACO DO NORTE;RUA SAO BASILIO;2076;SAO BASILIO;BRAÇO DO NORTE;48.0;36584015;88750000;cejabracodonorte36@sed.sc.gov.br;Estaduais;RUA SAO BASILIO, 2076 - SAO BASILIO, BRAÇO DO NORTE - SC, 88750000;-28.28617;-49.16321
701718;CEJA DE BRUSQUE;RUA ADRIANO SCHAEFFER;42;CENTRO;BRUSQUE;47.0;32518243;88350330;ceja16@sed.sc.gov.br;Estaduais;RUA ADRIANO SCHAEFFER, 42 - CENTRO, BRUSQUE - SC, 88350330;-27.0992;-48.9163
700568;CEJA DE CACADOR;ADOLFO FRANZ GROTH;421;DER;CAÇADOR;49.0;35615981;89506111;seriedh10cejacacador@sed.sc.gov.br;Estaduais;ADOLFO FRANZ GROTH, 421 - DER, CAÇADOR - SC, 89506111;-26.76854;-51.02009
701700;CEJA DE CAMPOS NOVOS;RUA SANTA EFIGÊNIA;695;SENHOR BOM JESUS;CAMPOS NOVOS;49.0;35413390;89620000;cejacamposnovos@sed.sc.gov.br;Estaduais;RUA SANTA EFIGÊNIA, 695 - SENHOR BOM JESUS, CAMPOS NOVOS - SC, 89620000;-27.39801;-51.22979
701513;CEJA DE CANOINHAS;RUA BARAO DO RIO BRANCO;1182;CENTRO;CANOINHAS;47.0;36274057;89460100;ceja26@sed.sc.gov.br;Estaduais;RUA BARAO DO RIO BRANCO, 1182 - CENTRO, CANOINHAS - SC, 89460100;-26.18238;-50.38941
700550;CEJA DE CHAPECO;RUA ASSIS BRASIL;31;MARIA GORETTI;CHAPECÓ;49.0;33223995;89801222;ceja04@sed.sc.gov.br;Estaduais;RUA ASSIS BRASIL, 31 - MARIA GORETTI, CHAPECÓ - SC, 89801222;-27.10329;-52.60511
700541;CEJA DE CONCORDIA;RUA LAURO MULLER;105;CENTRO;CONCÓRDIA;49.0;34826092;89700009;seriedh6cejaconcordia@sed.sc.gov.br;Estaduais;RUA LAURO MULLER, 105 - CENTRO, CONCÓRDIA - SC, 89700009;-27.23379;-52.02357
701246;CEJA DE CRICIUMA;RUA AFONSO SCAVONI;0;PINHEIRINHO;CRICIÚMA;48.0;34031336;88804420;cejacriciuma@sed.sc.gov.br;Estaduais;RUA AFONSO SCAVONI, 0 - PINHEIRINHO, CRICIÚMA - SC, 88804420;-28.69207;-49.38912
701769;CEJA DE CURITIBANOS;PRAÇA JOSEFINA AMORIM;1;CENTRO;CURITIBANOS;49.0;34123040;89520000;cejactbanos@sed.sc.gov.br;Estaduais;PRAÇA JOSEFINA AMORIM, 1 - CENTRO, CURITIBANOS - SC, 89520000;-27.28489;-50.57705
704300;CEJA DE DIONISIO CERQUEIRA;RUA SALDANHA DA GAMA;1200;PRIMEIRO DE MAIO;DIONÍSIO CERQUEIRA;49.0;36443342;89950000;cejadionisio@sed.sc.gov.br;Estaduais;RUA SALDANHA DA GAMA, 1200 - PRIMEIRO DE MAIO, DIONÍSIO CERQUEIRA - SC, 89950000;-26.26361;-53.63004
700053;CEJA DE FLORIANOPOLIS;RUA GENERAL BITTENCOURT;234;CENTRO;FLORIANÓPOLIS;48.0;36655637;88020100;ceja01@sed.sc.gov.br;Estaduais;RUA GENERAL BITTENCOURT, 234 - CENTRO, FLORIANÓPOLIS - SC, 88020100;-27.59764;-48.5465
701777;CEJA DE IBIRAMA;RUA 3 DE MAIO;365;CENTRO;IBIRAMA;47.0;33578985;89140000;cejaibirama@sed.sc.gov.br;Estaduais;RUA 3 DE MAIO, 365 - CENTRO, IBIRAMA - SC, 89140000;-27.05727;-49.51655
700649;CEJA DE IMBITUBA;RUA ERNANI COTRIN;737;CENTRO;IMBITUBA;48.0;36477995;88780000;cejaimbituba@sed.sc.gov.br;Estaduais;RUA ERNANI COTRIN, 737 - CENTRO, IMBITUBA - SC, 88780000;-28.23715;-48.67165
700584;CEJA DE ITAJAI;RUA JORGE MATTOS;0;CENTRO;ITAJAÍ;47.0;33986125;88302130;cejaitajai@sed.sc.gov.br;Estaduais;RUA JORGE MATTOS, 0 - CENTRO, ITAJAÍ - SC, 88302130;-26.91411;-48.66383
700843;CEJA DE ITAPIRANGA;RUA SÃO BONIFÁCIO;186;CENTRO;ITAPIRANGA;49.0;34725032;89896000;cejaitapiranga@sed.sc.gov.br;Estaduais;RUA SÃO BONIFÁCIO, 186 - CENTRO, ITAPIRANGA - SC, 89896000;-27.17159;-53.71272
701483;CEJA DE ITUPORANGA;AV PARAGUAI;187;JARDIM AMERICA;ITUPORANGA;47.0;35338776;88400000;cejaituporanga@sed.sc.gov.br;Estaduais;AV PARAGUAI, 187 - JARDIM AMERICA, ITUPORANGA - SC, 88400000;-20.33499;-40.36901
701491;CEJA DE JARAGUA DO SUL;RUA JOAO JANUARIO AYROSO;115;JARAGUA ESQUERDO;JARAGUÁ DO SUL;47.0;32769434;89253100;ceja24@sed.sc.gov.br;Estaduais;RUA JOAO JANUARIO AYROSO, 115 - JARAGUA ESQUERDO, JARAGUÁ DO SUL - SC, 89253100;-26.49521;-49.08934
700533;CEJA DE JOACABA;AVENIDA SANTA TEREZINHA;105;CENTRO;JOAÇABA;49.0;35279586;89600000;cejajoacaba@sed.sc.gov.br;Estaduais;AVENIDA SANTA TEREZINHA, 105 - CENTRO, JOAÇABA - SC, 89600000;-27.1762;-51.5042
701424;CEJA DE JOINVILLE;RUA ALEXANDRE SCHLEMM;110;BUCAREIN;JOINVILLE;47.0;34311493;89202417;ceja05@sed.sc.gov.br;Estaduais;RUA ALEXANDRE SCHLEMM, 110 - BUCAREIN, JOINVILLE - SC, 89202417;-26.312;-48.84185
701173;CEJA DE LAGES;RUA CORREIA PINTO;295;CENTRO;LAGES;49.0;32243444;88502201;seriedh27cejalages@sed.sc.gov.br;Estaduais;RUA CORREIA PINTO, 295 - CENTRO, LAGES - SC, 88502201;-27.8129;-50.32517
701670;CEJA DE LAGUNA;AV. COLOMBO MACHADO SALLES;0;CAMPO DE FORA;LAGUNA;48.0;36477403;88790000;cejalaguna@sed.sc.gov.br;Estaduais;AV. COLOMBO MACHADO SALLES, 0 - CAMPO DE FORA, LAGUNA - SC, 88790000;-28.47611;-48.78155
701521;CEJA DE MAFRA;RUA MARECHAL DEODORO;494;CENTRO;MAFRA;47.0;36470301;89300172;ceja25mafra@sed.sc.gov.br;Estaduais;RUA MARECHAL DEODORO, 494 - CENTRO, MAFRA - SC, 89300172;-26.11531;-49.80628
701181;CEJA DE MARAVILHA;RUA GENERAL OSÓRIO;319;CENTRO;MARAVILHA;49.0;36646632;89874000;cejamaravilha@sed.sc.gov.br;Estaduais;RUA GENERAL OSÓRIO, 319 - CENTRO, MARAVILHA - SC, 89874000;-26.76514;-53.1792
701599;CEJA DE PALMITOS;RUA PADRE MANOEL DA NOBREGA;568;CENTRO;PALMITOS;49.0;34624104;89887000;cejapalmitos@sed.sc.gov.br;Estaduais;RUA PADRE MANOEL DA NOBREGA, 568 - CENTRO, PALMITOS - SC, 89887000;-27.06672;-53.15323
701190;CEJA DE QUILOMBO;RUA SANTO ANGELO;205;CENTRO;QUILOMBO;49.0;33462458;89850000;seriedh32cejaquilombo@sed.sc.gov.br;Estaduais;RUA SANTO ANGELO, 205 - CENTRO, QUILOMBO - SC, 89850000;-26.72372;-52.72039
700614;CEJA DE RIO DO SUL;RUA RUI BARBOSA;221;SUMARÉ;RIO DO SUL;47.0;35263140;89165487;ceja06@sed.sc.gov.br;Estaduais;RUA RUI BARBOSA, 221 - SUMARÉ, RIO DO SUL - SC, 89165487;-27.22203;-49.64804
701505;CEJA DE SAO BENTO DO SUL;RUA WOLFGANG AMMON;54;CENTRO;SÃO BENTO DO SUL;47.0;36470572;89280169;ceja25@sed.sc.gov.br;Estaduais;RUA WOLFGANG AMMON, 54 - CENTRO, SÃO BENTO DO SUL - SC, 89280169;-26.24776;-49.38352
701793;CEJA DE SAO JOAQUIM;LARGO ARISTORIDES STADLER;19;CENTRO;SÃO JOAQUIM;49.0;32338479;88600000;cejasaojoaquim@sed.sc.gov.br;Estaduais;LARGO ARISTORIDES STADLER, 19 - CENTRO, SÃO JOAQUIM - SC, 88600000;-27.82607;-50.33584
704342;CEJA DE SAO JOSE;RUA JOAQUIM VAZ;1314;PRAIA COMPRIDA;SÃO JOSÉ;48.0;36657396;88102650;cejasj@sed.sc.gov.br;Estaduais;RUA JOAQUIM VAZ, 1314 - PRAIA COMPRIDA, SÃO JOSÉ - SC, 88102650;-27.60281;-48.61973
700967;CEJA DE SÃO LOURENÇO DO OESTE;RUA RIO DE JANEIRO;720;CRUZEIRO;SÃO LOURENÇO DO OESTE;49.0;33721050;89990000;cejaslo@sed.sc.gov.br;Estaduais;RUA RIO DE JANEIRO, 720 - CRUZEIRO, SÃO LOURENÇO DO OESTE - SC, 89990000;-26.35925;-52.85301
701653;CEJA DE SAO MIGUEL D OESTE;RUA JOHN KENNEDY;1405;CENTRO;SÃO MIGUEL DO OESTE;49.0;36312950;89900000;ceja12@sed.sc.gov.br;Estaduais;RUA JOHN KENNEDY, 1405 - CENTRO, SÃO MIGUEL DO OESTE - SC, 89900000;-26.73749;-53.51864
704318;CEJA DE SEARA;RUA PHILOMENA MARIA GRIGOLO;53;INDUSTRIAL;SEARA;49.0;34528644;89770000;cejaseara@sed.sc.gov.br;Estaduais;RUA PHILOMENA MARIA GRIGOLO, 53 - INDUSTRIAL, SEARA - SC, 89770000;-27.16064;-52.31827
703281;CEJA DE TAIO;RUA ROBERTO MAYR;27;BAIRRO SEMINARIO;TAIÓ;47.0;35628468;89190000;seriedh34taio@sed.sc.gov.br;Estaduais;RUA ROBERTO MAYR, 27 - BAIRRO SEMINARIO, TAIÓ - SC, 89190000;-27.11748;-49.98668
704350;CEJA DE TIMBO;RECIFE;293;CENTRO;TIMBÓ;47.0;33991344;89120000;ceja35@sed.sc.gov.br;Estaduais;RECIFE, 293 - CENTRO, TIMBÓ - SC, 89120000;-26.8214;-49.27986
700517;CEJA DE TUBARAO;RUA SAO JOSE;234;CENTRO;TUBARÃO;48.0;36319411;88701260;cejatubarao@sed.sc.gov.br;Estaduais;RUA SAO JOSE, 234 - CENTRO, TUBARÃO - SC, 88701260;-28.48396;-49.00842
700860;CEJA DE VIDEIRA;VITOR MEIRELES;71;MATRIZ;VIDEIRA;49.0;35335816;89560184;cejavideira@sed.sc.gov.br;Estaduais;VITOR MEIRELES, 71 - MATRIZ, VIDEIRA - SC, 89560184;-27.00731;-51.15215
700576;CEJA DE XANXERE;PAPA JOÃO XX I I I;70;CENTRO;XANXERÊ;49.0;33822158;89820000;cejaxanxere@sed.sc.gov.br;Estaduais;PAPA JOÃO XX I I I, 70 - CENTRO, XANXERÊ - SC, 89820000;-26.88169;-52.40246
153940;COLEGIO POLICIAL MILITAR FELICIANO NUNES PIRES;RUA DA INDEPENDENCIA;245;GETHAL;LAGES;49.0;32243299;88520400;cfnplgssec@pm.sc.gov.br;Estaduais;RUA DA INDEPENDENCIA, 245 - GETHAL, LAGES - SC, 88520400;-27.79592;-50.29939
158836;COLEGIO POLICIAL MILITAR FELICIANO NUNES PIRES - NUCLEO JERONIMO COELHO;RUA TENENTE BESSA;60;CENTRO;LAGUNA;;;88790000;cfnplgdir@pm.sc.gov.br;Estaduais;RUA TENENTE BESSA, 60 - CENTRO, LAGUNA - SC, 88790000;-28.48184;-48.77976
156388;COLEGIO POLICIAL MILITAR FELICIANO NUNES PIRES - UNIDADE BLUMENAU;RUA FLORIANO PEIXOTO;651;CENTRO;BLUMENAU;47.0;33788284;89010500;cfnpbnudir@pm.sc.gov.br;Estaduais;RUA FLORIANO PEIXOTO, 651 - CENTRO, BLUMENAU - SC, 89010500;-26.92242;-49.06368
156396;COLEGIO POLICIAL MILITAR FELICIANO NUNES PIRES - UNIDADE OSVALDO ARANHA;RUA LINDOIA;103;GLORIA;JOINVILLE;47.0;34818943;89216300;cfnpjllesec@pm.sc.gov.br;Estaduais;RUA LINDOIA, 103 - GLORIA, JOINVILLE - SC, 89216300;-26.29785;-48.87139
79804;EEB ABEL ESTEVES DE AGUIAR;ESTRADA GERAL;0;CACHOEIRA;PRAIA GRANDE;48.0;35290468;88990000;eebaeaguiar@sed.sc.gov.br;Estaduais;ESTRADA GERAL, 0 - CACHOEIRA, PRAIA GRANDE - SC, 88990000;-29.14267;-49.89386
13765;EEB ABILIO CESAR BORGES;RUA ALFREDO PESSI;384;CENTRO;NOVA VENEZA;48.0;34031158;88865000;eebacborges@sed.sc.gov.br;Estaduais;RUA ALFREDO PESSI, 384 - CENTRO, NOVA VENEZA - SC, 88865000;-28.64655;-49.50676
69612;EEB ADELAIDE KONDER;RUA SANTOS MACARINI;350;MACHADOS;NAVEGANTES;47.0;33986152;88371554;eebadelaidekonder@sed.sc.gov.br;Estaduais;RUA SANTOS MACARINI, 350 - MACHADOS, NAVEGANTES - SC, 88371554;-26.86199;-48.68736
2070;EEB ADERBAL RAMOS DA SILVA;RUA CORONEL PEDRO DEMORO;1998;ESTREITO;FLORIANÓPOLIS;48.0;36655624;88075300;aderbalramos@sed.sc.gov.br;Estaduais;RUA CORONEL PEDRO DEMORO, 1998 - ESTREITO, FLORIANÓPOLIS - SC, 88075300;-27.58336;-48.58259
71200;EEB ADOLFO ANTONIO CABRAL;RUA ADOLFO CABRAL;0;SANTO ANTONIO;BALNEÁRIO PIÇARRAS;47.0;33986177;88380000;eebadolfoacabral@sed.sc.gov.br;Estaduais;RUA ADOLFO CABRAL, 0 - SANTO ANTONIO, BALNEÁRIO PIÇARRAS - SC, 88380000;-26.75816;-48.68532
23817;EEB ADOLFO BOVING;RUA LEOPOLDO JOENCK;82;CENTRO;BRAÇO DO TROMBUDO;47.0;35263218;89178000;eebadolfob@sed.sc.gov.br;Estaduais;RUA LEOPOLDO JOENCK, 82 - CENTRO, BRAÇO DO TROMBUDO - SC, 89178000;-27.35625;-49.88244
34819;EEB ADOLFO JOSE MARTINS;R RANIER CASSETTARI;47;CENTRO;BOM JARDIM DA SERRA;49.0;32338478;88640000;adolfomartins@sed.sc.gov.br;Estaduais;R RANIER CASSETTARI, 47 - CENTRO, BOM JARDIM DA SERRA - SC, 88640000;-28.34033;-49.62457
60585;EEB ADOLFO SILVEIRA;R ALAIR SCHMITT ZANIN;804;CENTRO;PARAÍSO;49.0;36312983;89906000;seriedh1asilveira@sed.sc.gov.br;Estaduais;R ALAIR SCHMITT ZANIN, 804 - CENTRO, PARAÍSO - SC, 89906000;-26.61756;-53.67965
16004;EEB ADOLPHO KONDER;RUA UBERABA;99;VELHA;BLUMENAU;47.0;33788497;89036460;eebakonder@sed.sc.gov.br;Estaduais;RUA UBERABA, 99 - VELHA, BLUMENAU - SC, 89036460;-26.91786;-49.09365
31070;EEB AGAR ALVES NUNES;RUA VALDO DA COSTA AVILA;172;CENTRO ADMINISTRATIVO;OTACÍLIO COSTA;49.0;32753001;88540000;seriedh27anunes@sed.sc.gov.br;Estaduais;RUA VALDO DA COSTA AVILA, 172 - CENTRO ADMINISTRATIVO, OTACÍLIO COSTA - SC, 88540000;-27.48365;-50.1211
60550;EEB ALBERICO AZEVEDO;RUA TIRADENTES;989;SAO JORGE;SÃO MIGUEL DO OESTE;49.0;36313200;89900000;eebalberico@sed.sc.gov.br;Estaduais;RUA TIRADENTES, 989 - SAO JORGE, SÃO MIGUEL DO OESTE - SC, 89900000;-26.74006;-53.51102
72311;EEB ALBINA MOSCONI;RODOLFO NICKEL;245;CENTRO;MACIEIRA;49.0;35616878;89518000;ebam@sed.sc.gov.br;Estaduais;RODOLFO NICKEL, 245 - CENTRO, MACIEIRA - SC, 89518000;-26.85476;-51.3765
109150;EEB ALCUINO GONCALO VIEIRA;RUA JACARANDÁ;0;TABOLEIRO;CAMBORIÚ;47.0;33986229;88348219;eebalcuinogvieira@sed.sc.gov.br;Estaduais;RUA JACARANDÁ, 0 - TABOLEIRO, CAMBORIÚ - SC, 88348219;-27.00287;-48.65558
3751;EEB ALDO CAMARA DA SILVA;ALFREDO JOSE DO AMORIM;0;NOSSA SENHORA DO ROSARIO;SÃO JOSÉ;48.0;36655791;88110660;aldocamara@sed.sc.gov.br;Estaduais;ALFREDO JOSE DO AMORIM, 0 - NOSSA SENHORA DO ROSARIO, SÃO JOSÉ - SC, 88110660;-27.57961;-48.62194
52272;EEB ALECIO ALEXANDRE CELLA;LUIZ CELLA;130;TREVO;CHAPECÓ;49.0;20497806;89810814;"ebm.aleciocella@edu.chapeco.sc.gov.br
";Estaduais;LUIZ CELLA, 130 - TREVO, CHAPECÓ - SC, 89810814;-27.00144;-52.64735
95761;EEB ALEIXO DELLAGIUSTINA;RUA 24 DE SETEMBRO;388;SANTO ANTONIO;ITUPORANGA;47.0;35338779;88400000;eebad13@sed.sc.gov.br;Estaduais;RUA 24 DE SETEMBRO, 388 - SANTO ANTONIO, ITUPORANGA - SC, 88400000;-27.40418;-49.60511
71323;EEB ALEXANDRE GUILHERME FIGUEREDO;FARMACEUTICO OSORIO DOMINGO CORREA;519;CENTRO;BALNEÁRIO PIÇARRAS;47.0;33986151;88380000;eebalexandregfigueredo@sed.sc.gov.br;Estaduais;FARMACEUTICO OSORIO DOMINGO CORREA, 519 - CENTRO, BALNEÁRIO PIÇARRAS - SC, 88380000;-26.76883;-48.6738
36285;EEB ALEXANDRE GUSMAO;R ANITA GARIBALDI;505;CENTRO;BOM RETIRO;49.0;32338394;88680000;alexandregusmao@sed.sc.gov.br;Estaduais;R ANITA GARIBALDI, 505 - CENTRO, BOM RETIRO - SC, 88680000;-27.79498;-49.48782
81175;EEB ALEXANDRE TERNES FILHO;RUA SENADOR GALLOTTI;600;JOAIA;TIJUCAS;48.0;36655576;88200000;eebatf@sed.sc.gov.br;Estaduais;RUA SENADOR GALLOTTI, 600 - JOAIA, TIJUCAS - SC, 88200000;-27.25755;-48.65709
23124;EEB ALFREDO DALFOVO;ENGENHEIRO ODEBRECHT;295;BUDAG;RIO DO SUL;47.0;35263139;89165412;eebdalfovo@sed.sc.gov.br;Estaduais;ENGENHEIRO ODEBRECHT, 295 - BUDAG, RIO DO SUL - SC, 89165412;-27.2266;-49.66294
91944;EEB ALFREDO ZIMMERMANN;RUA GUSTAVO RUBIN;226;AVAI;GUARAMIRIM;47.0;32769430;89270000;seriedh24azimmermann@sed.sc.gov.br;Estaduais;RUA GUSTAVO RUBIN, 226 - AVAI, GUARAMIRIM - SC, 89270000;-26.4655;-48.97846
10391;EEB ALICE JULIA TEIXEIRA;RODOVIA DOS IMIGRANTES SG 100;1081;SANTA APOLONIA;SANGÃO;48.0;36644635;88717000;seriedh20ateixeira@sed.sc.gov.br;Estaduais;RODOVIA DOS IMIGRANTES SG 100, 1081 - SANTA APOLONIA, SANGÃO - SC, 88717000;-28.65137;-49.12106
40932;EEB ALINOR VIEIRA CORTE;RUA GRACILIANO MACHADO;253;CENTRO;PAPANDUVA;47.0;36470342;89370000;eebavc@sed.sc.gov.br;Estaduais;RUA GRACILIANO MACHADO, 253 - CENTRO, PAPANDUVA - SC, 89370000;-26.40453;-50.1431
89346;EEB ALMIRANTE BARROSO;RUA CURITIBANOS;655;CENTRO;CANOINHAS;47.0;36274217;89460146;eebab@sed.sc.gov.br;Estaduais;RUA CURITIBANOS, 655 - CENTRO, CANOINHAS - SC, 89460146;-26.1817;-50.38983
21687;EEB ALMIRANTE BOITEUX;RUA NEREU RAMOS;180;CENTRO;ARAQUARI;47.0;34311420;89245000;eebalmirante@sed.sc.gov.br;Estaduais;RUA NEREU RAMOS, 180 - CENTRO, ARAQUARI - SC, 89245000;-26.37103;-48.72264
12335;EEB ALOYSIUS BACK;RUA HERCILIO MINATTO;134;VILA LOURDES;FORQUILHINHA;48.0;34031130;88850000;eebaback@sed.sc.gov.br;Estaduais;RUA HERCILIO MINATTO, 134 - VILA LOURDES, FORQUILHINHA - SC, 88850000;-28.72896;-49.47494
2895;EEB ALTAMIRO GUIMARAES;RUA DANIEL PETRY;678;CENTRO;ANTÔNIO CARLOS;48.0;36655869;88180000;altamiro@sed.sc.gov.br;Estaduais;RUA DANIEL PETRY, 678 - CENTRO, ANTÔNIO CARLOS - SC, 88180000;-27.5138;-48.76206
5657;EEB ALTINO FLORES;R PAULICO COELHO;23;CENTRO;ANITÁPOLIS;48.0;36654414;88475000;altinoflores@sed.sc.gov.br;Estaduais;R PAULICO COELHO, 23 - CENTRO, ANITÁPOLIS - SC, 88475000;-27.90255;-49.12915
91596;EEB ALVINO TRIBESS;RUA ADOLFO TRIBESS;180;VIEIRA;JARAGUÁ DO SUL;47.0;32769460;89256690;alvinotribess@sed.sc.gov.br;Estaduais;RUA ADOLFO TRIBESS, 180 - VIEIRA, JARAGUÁ DO SUL - SC, 89256690;-26.47634;-49.04154
39969;EEB AMANDUS BAUER;SC 477;50;IRACEMA;ITAIÓPOLIS;47.0;997168634;89340000;seriedh25abauer@sed.sc.gov.br;Estaduais;SC 477, 50 - IRACEMA, ITAIÓPOLIS - SC, 89340000;-26.49832;-49.86232
102660;EEB AMERICA DUTRA MACHADO;JOAQUIM NABUCO;2875;MONTE CRISTO;FLORIANÓPOLIS;48.0;36656355;88090060;america@sed.sc.gov.br;Estaduais;JOAQUIM NABUCO, 2875 - MONTE CRISTO, FLORIANÓPOLIS - SC, 88090060;-27.59076;-48.60263
93912;EEB ANA GONDIN;TRAVESSA ZEFERINO DE CASTRO;165;MAGALHAES;LAGUNA;48.0;36477772;88790000;anagondin@sed.sc.gov.br;Estaduais;TRAVESSA ZEFERINO DE CASTRO, 165 - MAGALHAES, LAGUNA - SC, 88790000;-28.49363;-48.77861
78948;EEB ANA MACHADO DAL TOE;RUA ARTIDÓRIO ROSSO;0;CENTRO;MORRO GRANDE;48.0;35290207;88925000;seriedh22amdaltoe@sed.sc.gov.br;Estaduais;RUA ARTIDÓRIO ROSSO, 0 - CENTRO, MORRO GRANDE - SC, 88925000;-28.8006;-49.71948
94200;EEB ANDRE A DE SOUZA;RUA JOAO LEOPOLDINO DE SOUZA;0;ROCA GRANDE;IMBITUBA;48.0;36477824;88780000;andredesouza@sed.sc.gov.br;Estaduais;RUA JOAO LEOPOLDINO DE SOUZA, 0 - ROCA GRANDE, IMBITUBA - SC, 88780000;-28.13364;-48.67533
12270;EEB ANGELO IZE;RUA DO IMIGRANTE ITALIANO;0;SANGA DO ENGENHO;FORQUILHINHA;48.0;34031156;88850000;eefangeloize@sed.sc.gov.br;Estaduais;RUA DO IMIGRANTE ITALIANO, 0 - SANGA DO ENGENHO, FORQUILHINHA - SC, 88850000;-28.81269;-49.55851
73083;EEB ANISIO RACHADEL DE OLIVEIRA;RUA RAQUEL NORA;0;ANTA GORDA;VIDEIRA;49.0;35335648;89567899;eebanisiorachadel@sed.sc.gov.br;Estaduais;RUA RAQUEL NORA, 0 - ANTA GORDA, VIDEIRA - SC, 89567899;-26.99978;-51.15362
6173;EEB ANISIO V DE FREITAS;R JOAO JACINTO MACHADO;478;SUL DO RIO;SANTO AMARO DA IMPERATRIZ;48.0;36655876;88140000;anisiofreitas@sed.sc.gov.br;Estaduais;R JOAO JACINTO MACHADO, 478 - SUL DO RIO, SANTO AMARO DA IMPERATRIZ - SC, 88140000;-27.68908;-48.77275
73679;EEB ANITA BRASILEIRA;ESTRADA GERAL PARA LOURDES;0;INTERIOR;VIDEIRA;49.0;99802529;89567899;eebanitabrasileira@sed.sc.gov.br;Estaduais;ESTRADA GERAL PARA LOURDES, 0 - INTERIOR, VIDEIRA - SC, 89567899;-27.02612;-51.12474
70734;EEB ANITA GARIBALDI;AVENIDA NEREU RAMOS;5032;MEIA PRAIA;ITAPEMA;47.0;33986547;88220000;eebagaribaldi@sed.sc.gov.br;Estaduais;AVENIDA NEREU RAMOS, 5032 - MEIA PRAIA, ITAPEMA - SC, 88220000;-27.137;-48.59591
64610;EEB ANTENOR NASCENTES;AV SANTA ROSA;441;CENTRO;PRINCESA;49.0;36443387;89935000;antenor@sed.sc.gov.br;Estaduais;AV SANTA ROSA, 441 - CENTRO, PRINCESA - SC, 89935000;-26.44571;-53.60132
39985;EEB ANTONIO BLASKOWSKI;SC 477 KM 77;0;ITAIO;ITAIÓPOLIS;47.0;98493014;89340000;eebablaskowski@sed.sc.gov.br;Estaduais;SC 477 KM 77, 0 - ITAIO, ITAIÓPOLIS - SC, 89340000;-26.47576;-49.86913
13056;EEB ANTONIO COLONETTI;RUA ANTONIO GUGLIELMI;0;JAQUELINE;IÇARA;48.0;34031135;88820000;eebacolonetti@sed.sc.gov.br;Estaduais;RUA ANTONIO GUGLIELMI, 0 - JAQUELINE, IÇARA - SC, 88820000;-28.71608;-49.284
13110;EEB ANTONIO G SOBRINHO;R 17 DE AGOSTO;0;VILA NOVA;IÇARA;48.0;34031140;88820000;eebagsobrinho@sed.sc.gov.br;Estaduais;R 17 DE AGOSTO, 0 - VILA NOVA, IÇARA - SC, 88820000;-28.75681;-49.27128
90611;EEB ANTONIO GONZAGA;RUA FRANCISCO DE SOUZA BACELAR;245;SANTA ROSA;PORTO UNIÃO;47.0;36274235;89400000;antoniog@sed.sc.gov.br;Estaduais;RUA FRANCISCO DE SOUZA BACELAR, 245 - SANTA ROSA, PORTO UNIÃO - SC, 89400000;-26.24838;-51.07104
12114;EEB ANTONIO MILANEZ NETTO;RUA JOVENTINO VIEIRA;0;SAO DEFENDE;CRICIÚMA;48.0;34031360;88808054;eebamneto@sed.sc.gov.br;Estaduais;RUA JOVENTINO VIEIRA, 0 - SAO DEFENDE, CRICIÚMA - SC, 88808054;-28.70449;-49.45417
53910;EEB ANTONIO MORANDINI;RUA IGUAÇU - E;160;SAIC;CHAPECÓ;49.0;33221012;89802171;antoniomorandini@sed.sc.gov.br;Estaduais;RUA IGUAÇU - E, 160 - SAIC, CHAPECÓ - SC, 89802171;-27.11308;-52.62513
69701;EEB ANTONIO ROCHA ANDRADE;R JULIA DA COSTA FLORES;68;GRAVATA;PENHA;47.0;33986049;88385000;eebantoniorandrade@sed.sc.gov.br;Estaduais;R JULIA DA COSTA FLORES, 68 - GRAVATA, PENHA - SC, 88385000;-26.82026;-48.62062
83909;EEB APARICIO JULIO FARRAPO;CONSOLAÇÃO;408;MATINHO;XANXERÊ;49.0;33822156;89820000;seriedh5afarrapo@sed.sc.gov.br;Estaduais;CONSOLAÇÃO, 408 - MATINHO, XANXERÊ - SC, 89820000;-26.88182;-52.4103
76317;EEB APOLONIO IRENO CARDOSO;RUA APOLONIO IRENO CARDOSO;592;CENTRO;BALNEÁRIO ARROIO DO SILVA;48.0;35290199;88914000;seriedh22aicardoso@sed.sc.gov.br;Estaduais;RUA APOLONIO IRENO CARDOSO, 592 - CENTRO, BALNEÁRIO ARROIO DO SILVA - SC, 88914000;-28.98257;-49.41479
47724;EEB ARABUTA;ADILIO MUTZENBERG;203;CENTRO;ARABUTÃ;49.0;34528651;89740000;seriedh33arabuta@sed.sc.gov.br;Estaduais;ADILIO MUTZENBERG, 203 - CENTRO, ARABUTÃ - SC, 89740000;-27.1603;-52.1432
36943;EEB ARAUJO FIGUEIREDO;RUA HIPOLITO DA SILVA MATOS;654;CENTRO;URUBICI;49.0;32338365;88650000;araujofigueiredo@sed.sc.gov.br;Estaduais;RUA HIPOLITO DA SILVA MATOS, 654 - CENTRO, URUBICI - SC, 88650000;-28.01479;-49.59417
20524;EEB ARNALDO MOREIRA DOUAT;RUA GENY PEIXER;153;COSTA E SILVA;JOINVILLE;47.0;3481-2427;89218610;eebarnaldomd@sed.sc.gov.br;Estaduais;RUA GENY PEIXER, 153 - COSTA E SILVA, JOINVILLE - SC, 89218610;-26.2765;-48.87307
16950;EEB ARNOLDO AGENOR ZIMMERMANN;RUA ADRIANO KORMANN;599;BELA VISTA;GASPAR;47.0;33788261;89111009;eebarnoldo@sed.sc.gov.br;Estaduais;RUA ADRIANO KORMANN, 599 - BELA VISTA, GASPAR - SC, 89111009;-26.90047;-49.00455
101095;EEB ARY DE SOUZA BORGES;R DR JORGE BLEYER;0;MARTORANO;SÃO JOAQUIM;49.0;32338406;88600000;aryborges@sed.sc.gov.br;Estaduais;R DR JORGE BLEYER, 0 - MARTORANO, SÃO JOAQUIM - SC, 88600000;-28.28196;-49.93276
39454;EEB BARAO DE ANTONINA;MARECHAL DEODORO;484;CENTRO;MAFRA;47.0;36470458;89300172;seriedh25antonina@sed.sc.gov.br;Estaduais;MARECHAL DEODORO, 484 - CENTRO, MAFRA - SC, 89300172;-26.11534;-49.80661
13935;EEB BARAO DO RIO BRANCO;RUA VIDAL RAMOS;49;CENTRO;URUSSANGA;48.0;34031168;88840000;eebbriobranco@sed.sc.gov.br;Estaduais;RUA VIDAL RAMOS, 49 - CENTRO, URUSSANGA - SC, 88840000;-28.51886;-49.32241
81620;EEB BARTOLOMEU DA SILVA;RUA VR OTAVIANO ANGELO DAROSCI;63;MOURA;CANELINHA;48.0;36654695;88230000;eebbs@sed.sc.gov.br;Estaduais;RUA VR OTAVIANO ANGELO DAROSCI, 63 - MOURA, CANELINHA - SC, 88230000;-27.27226;-48.79382
102652;EEB BELA VISTA;AVENIDA BRASILIA;0;BELA VISTA II;SÃO JOSÉ;48.0;36655760;88110050;belavista@sed.sc.gov.br;Estaduais;AVENIDA BRASILIA, 0 - BELA VISTA II, SÃO JOSÉ - SC, 88110050;-27.57576;-48.62008
87718;EEB BELERMINO VICTOR DALLA VECCHIA;RUA ADEMAR JOSE RAUBER;15;BAIA ALTA;PONTE SERRADA;49.0;33822123;89683000;eebbelerminodvecchia@sed.sc.gov.br;Estaduais;RUA ADEMAR JOSE RAUBER, 15 - BAIA ALTA, PONTE SERRADA - SC, 89683000;-26.8697;-52.0149
43281;EEB BELISARIO PENA;R DONA LINDA SANTOS;605;CENTRO;CAPINZAL;49.0;35279560;89665000;eebbp@sed.sc.gov.br;Estaduais;R DONA LINDA SANTOS, 605 - CENTRO, CAPINZAL - SC, 89665000;-27.34682;-51.60772
28509;EEB BELISARIO RAMOS;RUA RIO GRANDE DO NORTE;490;SAO CRISTOVAO;LAGES;49.0;32898599;88509150;seriedh27bramos@sed.sc.gov.br;Estaduais;RUA RIO GRANDE DO NORTE, 490 - SAO CRISTOVAO, LAGES - SC, 88509150;-27.81581;-50.31657
50245;EEB BENJAMIM CARVALHO DE OLIVEIRA;DOM PEDRO II;175;CENTRO;IPUMIRIM;49.0;34528656;89790000;seriedh33boliveira@sed.sc.gov.br;Estaduais;DOM PEDRO II, 175 - CENTRO, IPUMIRIM - SC, 89790000;-27.07804;-52.13438
76449;EEB BERNARDINO SENA CAMPOS;RUA IVO ALMEIDA MACHADO;200;COLONINHA;ARARANGUÁ;48.0;35290290;88906664;seriedh22bscampos@sed.sc.gov.br;Estaduais;RUA IVO ALMEIDA MACHADO, 200 - COLONINHA, ARARANGUÁ - SC, 88906664;-28.93802;-49.46674
25500;EEB BERNARDO MULLER;SERRA DOS INDIOS;0;SERRA DOS INDIOS;PRESIDENTE GETÚLIO;47.0;36644620;89150000;seriedh14bmuller@sed.sc.gov.br;Estaduais;SERRA DOS INDIOS, 0 - SERRA DOS INDIOS, PRESIDENTE GETÚLIO - SC, 89150000;-27.04537;-49.62231
10170;EEB BERNARDO SCHMITZ;R JONAS GOULART;0;CENTRO;SANGÃO;48.0;36319392;88717000;seriedh20bschmitz@sed.sc.gov.br;Estaduais;R JONAS GOULART, 0 - CENTRO, SANGÃO - SC, 88717000;-28.63869;-49.12472
96849;EEB BERTINO SILVA;RUA ANGELO SILVA;247;CENTRO;LEOBERTO LEAL;48.0;32681152;88445000;bsilva@sed.sc.gov.br;Estaduais;RUA ANGELO SILVA, 247 - CENTRO, LEOBERTO LEAL - SC, 88445000;-27.5056;-49.29018
6769;EEB BERTOLDO ZIMMERMANN;ESTRADA GERAL MADRE;0;MATO ALTO;TUBARÃO;48.0;36319476;88706100;seriedh20bzimmermann@sed.sc.gov.br;Estaduais;ESTRADA GERAL MADRE, 0 - MATO ALTO, TUBARÃO - SC, 88706100;-28.50069;-48.98935
52230;EEB BOM PASTOR;RUA FLORIANOPOLIS;314;CENTRO;CHAPECÓ;49.0;20497609;89812120;bompastor@sed.sc.gov.br;Estaduais;RUA FLORIANOPOLIS, 314 - CENTRO, CHAPECÓ - SC, 89812120;-27.10973;-52.61007
25410;EEB BRUNO HEIDRICH;RUA BRUNO HEIDRICH;255;NOVA ESPERANÇA;MIRIM DOCE;47.0;35628440;89194000;seriedh34bheidrich@sed.sc.gov.br;Estaduais;RUA BRUNO HEIDRICH, 255 - NOVA ESPERANÇA, MIRIM DOCE - SC, 89194000;-27.19818;-50.0697
100790;EEB BRUNO HOELTGEBAUM;RUA PAULA HOELTGEBAUM;131;FORTALEZA;BLUMENAU;47.0;33788672;89057160;eebbhoeltgebaum@sed.sc.gov.br;Estaduais;RUA PAULA HOELTGEBAUM, 131 - FORTALEZA, BLUMENAU - SC, 89057160;-26.86937;-49.05971
80080;EEB BULCAO VIANA;RUA IRINEU BORNHAUSEN;383;CENTRO;PRAIA GRANDE;48.0;35290214;88990000;eebbviana@sed.sc.gov.br;Estaduais;RUA IRINEU BORNHAUSEN, 383 - CENTRO, PRAIA GRANDE - SC, 88990000;-29.19743;-49.95371
96806;EEB CACILDA GUIMARAES;RUA PEDRO WEBER;214;CENTRO;VIDAL RAMOS;47.0;35338813;88443000;cacilda_guimaraes@sed.sc.gov.br;Estaduais;RUA PEDRO WEBER, 214 - CENTRO, VIDAL RAMOS - SC, 88443000;-27.39525;-49.3604
14257;EEB CAETANO BEZ BATTI;AVENIDA DR VITORIO GIACONI;144;ESTACAO;URUSSANGA;48.0;34031167;88840000;eebcbezbatti@sed.sc.gov.br;Estaduais;AVENIDA DR VITORIO GIACONI, 144 - ESTACAO, URUSSANGA - SC, 88840000;-28.53237;-49.32124
72710;EEB CALMON;RUA JOÃO SERAFINI;85;CENTRO;CALMON;49.0;35616444;89430000;diretor72710@sed.sc.gov.br;Estaduais;RUA JOÃO SERAFINI, 85 - CENTRO, CALMON - SC, 89430000;-26.59971;-51.09868
29971;EEB CAMPOS SALES;ZECA ATANAZIO;389;CENTRO;BOCAINA DO SUL;49.0;32280060;88538000;seriedh27csales@sed.sc.gov.br;Estaduais;ZECA ATANAZIO, 389 - CENTRO, BOCAINA DO SUL - SC, 88538000;-27.74448;-49.94362
10286;EEB CAMPOS VERDES;VITÓRIO GUAREZZI;230;CAMPO BOM;JAGUARUNA;48.0;36319388;88715000;seriedh20cverdes@sed.sc.gov.br;Estaduais;VITÓRIO GUAREZZI, 230 - CAMPO BOM, JAGUARUNA - SC, 88715000;-28.7178;-49.06737
54291;EEB CANDIDO RAMOS;RUA DEMÉTRIO ALVES DA SILVA;27;CENTRO;CAXAMBU DO SUL;49.0;33260179;89880000;seriedh4cramos@sed.sc.gov.br;Estaduais;RUA DEMÉTRIO ALVES DA SILVA, 27 - CENTRO, CAXAMBU DO SUL - SC, 89880000;-27.15877;-52.88185
56324;EEB CARDEAL ARCOVERDE;RUA DEMETRIO LORENZ;156;CENTRO;SÃO CARLOS;49.0;34624101;89885000;seriedh29arcoverde@sed.sc.gov.br;Estaduais;RUA DEMETRIO LORENZ, 156 - CENTRO, SÃO CARLOS - SC, 89885000;-27.08345;-53.00147
51373;EEB CARLOS CHAGAS;BOA VISTA;327;CENTRO;PIRATUBA;49.0;34826075;89667000;seriedh6cchagas@sed.sc.gov.br;Estaduais;BOA VISTA, 327 - CENTRO, PIRATUBA - SC, 89667000;-27.42238;-51.77901
68713;EEB CARLOS FANTINI;RUA EDMUNDO LEOPOLDO MERIZIO;1515;LIMOEIRO;ITAJAÍ;47.0;33986207;88318996;eebcarlosfantini@sed.sc.gov.br;Estaduais;RUA EDMUNDO LEOPOLDO MERIZIO, 1515 - LIMOEIRO, ITAJAÍ - SC, 88318996;-27.03239;-48.85259
51160;EEB CARLOS FRIES;RUA TIRADENTES;192;CENTRO;IPIRA;49.0;34826074;89669000;seriedh6cfries@sed.sc.gov.br;Estaduais;RUA TIRADENTES, 192 - CENTRO, IPIRA - SC, 89669000;-27.39593;-51.22363
15407;EEB CARLOS TECHENTIN;RUA BAHIA;8222;PASSO MANSO;BLUMENAU;47.0;33788670;89032525;eebctechentin@sed.sc.gov.br;Estaduais;RUA BAHIA, 8222 - PASSO MANSO, BLUMENAU - SC, 89032525;-26.90142;-49.1487
55700;EEB CARLOS WERLANG;LINHA ALTO MAIPU;0;ÁREA RURAL;SAUDADES;49.0;20497782;89868000;Seriedh2cwerlang@sed.sc.gov.br;Estaduais;LINHA ALTO MAIPU, 0 - ÁREA RURAL, SAUDADES - SC, 89868000;-26.92629;-53.004
21369;EEB CARMEM SEARA LEITE;RUA PAPA JOAO 23;60;CENTRO;GARUVA;47.0;34311427;89248000;eebcsl@sed.sc.gov.br;Estaduais;RUA PAPA JOAO 23, 60 - CENTRO, GARUVA - SC, 89248000;-26.02742;-48.8531
35769;EEB CASIMIRO DE ABREU;R LUIZ DACOL;93;CENTRO;CURITIBANOS;49.0;34123063;89520000;eebcasimirodeabreu@sed.sc.gov.br;Estaduais;R LUIZ DACOL, 93 - CENTRO, CURITIBANOS - SC, 89520000;-27.28832;-50.57592
76490;EEB CASTRO ALVES;AV XV DE NOVEMBRO;1645;CENTRO;ARARANGUÁ;48.0;35290107;88900019;seriedh22calves@sed.sc.gov.br;Estaduais;AV XV DE NOVEMBRO, 1645 - CENTRO, ARARANGUÁ - SC, 88900019;-28.93572;-49.4828
10820;EEB CATEQUISTA JOANA PENDICA;JOÃO ESTEVÃO MENDES;0;POUSO ALTO;GRAVATAL;48.0;36644551;88735000;seriedh20jpendica@sed.sc.gov.br;Estaduais;JOÃO ESTEVÃO MENDES, 0 - POUSO ALTO, GRAVATAL - SC, 88735000;-28.38034;-49.01738
66826;EEB CATHARINA SEGER;DISTRITO CERRO AZUL;0;RURAL;PALMA SOLA;49.0;36643448;89985000;catharina@sed.sc.gov.br;Estaduais;DISTRITO CERRO AZUL, 0 - RURAL, PALMA SOLA - SC, 89985000;-26.377;-53.34595
78395;EEB CATULO DA PAIXAO CEARENSE;RUA PADRE JOÃO REITZ;435;CENTRO;SOMBRIO;48.0;35290139;88960000;eebcatulo@sed.sc.gov.br;Estaduais;RUA PADRE JOÃO REITZ, 435 - CENTRO, SOMBRIO - SC, 88960000;-29.11316;-49.63243
25720;EEB CECILIA AX;RUA ABEL CEOLA;204;RIO FERRO;PRESIDENTE GETÚLIO;47.0;33578994;89150000;seriedh14cax@sed.sc.gov.br;Estaduais;RUA ABEL CEOLA, 204 - RIO FERRO, PRESIDENTE GETÚLIO - SC, 89150000;-27.06915;-49.65123
26670;EEB CECILIA BERTHA HILDEGARD CARDOSO;BR 470 KM 127;0;SALTO PILAO;LONTRAS;47.0;35263307;89182000;seriedh14cbhcardoso@sed.sc.gov.br;Estaduais;BR 470 KM 127, 0 - SALTO PILAO, LONTRAS - SC, 89182000;-27.14728;-49.55469
3883;EEB CECILIA ROSA LOPES;ALAN KARDEC;284;FORQUILHINHAS;SÃO JOSÉ;48.0;36655788;88106758;cecilia@sed.sc.gov.br;Estaduais;ALAN KARDEC, 284 - FORQUILHINHAS, SÃO JOSÉ - SC, 88106758;-27.60299;-48.64606
73440;EEB CECILIA VIVAN;RUA JOAO 23;166;ESCOLAR;SALTO VELOSO;49.0;35335475;89595000;eebceciliavivan@sed.sc.gov.br;Estaduais;RUA JOAO 23, 166 - ESCOLAR, SALTO VELOSO - SC, 89595000;-26.90411;-51.40526
64602;EEB CEDRENSE;RUA JORGE LACERDA;1460;CENTRO;SÃO JOSÉ DO CEDRO;49.0;36443385;89930000;cedrense@sed.sc.gov.br;Estaduais;RUA JORGE LACERDA, 1460 - CENTRO, SÃO JOSÉ DO CEDRO - SC, 89930000;-26.45577;-53.50187
5355;EEB CEL ANTONIO LEHMKUHL;AV CEL ANTONIO LEHMKUHL;579;CENTRO;ÁGUAS MORNAS;48.0;36656368;88150000;antoniolehmkuhl@sed.sc.gov.br;Estaduais;AV CEL ANTONIO LEHMKUHL, 579 - CENTRO, ÁGUAS MORNAS - SC, 88150000;-27.69812;-48.81841
90581;EEB CEL CID GONZAGA;RUA ANNES GUALBERTO;0;CENTRO;PORTO UNIÃO;47.0;36274234;89400000;eebcidgonzaga@gmail.com;Estaduais;RUA ANNES GUALBERTO, 0 - CENTRO, PORTO UNIÃO - SC, 89400000;-26.24065;-51.08158
93475;EEB CEL JOSE MAURICIO DOS SANTOS;RUA FERNANDO ANTONIO DOS SANTOS;161;CAPUTERA;LAGUNA;48.0;36477784;88790000;josemauricio@sed.sc.gov.br;Estaduais;RUA FERNANDO ANTONIO DOS SANTOS, 161 - CAPUTERA, LAGUNA - SC, 88790000;-28.39627;-48.78589
12106;EEB CEL MARCOS ROVARIS;CONEGO ANIBAL MARIA DI FRANCIA;10;PINHEIRINHO;CRICIÚMA;48.0;34031276;88804360;eebcmrovaris@sed.sc.gov.br;Estaduais;CONEGO ANIBAL MARIA DI FRANCIA, 10 - PINHEIRINHO, CRICIÚMA - SC, 88804360;-28.69138;-49.39023
15997;EEB CEL PEDRO CHRISTIANO FEDDERSEN;R HENRIQUE CONRAD;145;VILA ITOUPAVA;BLUMENAU;47.0;33788369;89075350;seriedh15pcfeddersen@sed.sc.gov.br;Estaduais;R HENRIQUE CONRAD, 145 - VILA ITOUPAVA, BLUMENAU - SC, 89075350;-26.72744;-49.06779
86681;EEB CELESTINO JOSE DO NASCIMENTO;R JOAO MARIA CONRADO;164;CENTRO;OURO VERDE;49.0;33822103;89834000;seriedh5cnascimento@sed.sc.gov.br;Estaduais;R JOAO MARIA CONRADO, 164 - CENTRO, OURO VERDE - SC, 89834000;-26.69336;-52.30998
98248;EEB CELSO RAMOS FILHO;R CARLOS LINZMEYER;50;OXFORD;SÃO BENTO DO SUL;47.0;36470386;89285678;seriedh25crfilho@sed.sc.gov.br;Estaduais;R CARLOS LINZMEYER, 50 - OXFORD, SÃO BENTO DO SUL - SC, 89285678;-26.21875;-49.40857
16241;EEB CHRISTOPH AUGENSTEIN;R ARTHUR LINDNER;46;SALTO WEISSBACH;BLUMENAU;47.0;33788385;89032180;eebchristoph@sed.sc.gov.br;Estaduais;R ARTHUR LINDNER, 46 - SALTO WEISSBACH, BLUMENAU - SC, 89032180;-26.89402;-49.1302
67113;EEB CLAUDINO CRESTANI;R INNE VISSOTTO;641;CENTRO;PALMA SOLA;49.0;36443388;89985000;eebclaudino@sed.sc.gov.br;Estaduais;R INNE VISSOTTO, 641 - CENTRO, PALMA SOLA - SC, 89985000;-26.34751;-53.27995
12009;EEB COELHO NETO;ALTAMIRO GUIMARAES;176;SANTA BARBARA;CRICIÚMA;48.0;34031603;88804250;eebcoelhoneto@sed.sc.gov.br;Estaduais;ALTAMIRO GUIMARAES, 176 - SANTA BARBARA, CRICIÚMA - SC, 88804250;-28.68463;-49.38103
89257;EEB COLOMBO MACHADO SALLES;RUA FELIX DA COSTA GOMES;987;JOAO PAULO - II;TRÊS BARRAS;47.0;36274221;89490000;colombotb@sed.sc.gov.br;Estaduais;RUA FELIX DA COSTA GOMES, 987 - JOAO PAULO - II, TRÊS BARRAS - SC, 89490000;-26.13696;-50.31062
93920;EEB COMENDADOR ROCHA;AV CALISTRATO MULLER SALLES;91;PROGRESSO;LAGUNA;48.0;36477807;88790000;comendadorocha@sed.sc.gov.br;Estaduais;AV CALISTRATO MULLER SALLES, 91 - PROGRESSO, LAGUNA - SC, 88790000;-28.47362;-48.78398
8753;EEB CONEGO NICOLAU GESING;RUA GOVERNADOR IRINEU BORNHAUSEN;4738;RIO BONITO;BRAÇO DO NORTE;48.0;36511906;88750000;eebcngesing@gmail.com;Estaduais;RUA GOVERNADOR IRINEU BORNHAUSEN, 4738 - RIO BONITO, BRAÇO DO NORTE - SC, 88750000;-28.27352;-49.14459
2461;EEB CONEGO RODOLFO MACHADO;BR 101 - KM 185;0;TIJUQUINHAS;BIGUAÇU;48.0;36656350;88160991;conego@sed.sc.gov.br;Estaduais;BR 101 - KM 185, 0 - TIJUQUINHAS, BIGUAÇU - SC, 88160991;-27.49386;-48.65663
22233;EEB CONSELHEIRO ASTROGILDO ODON AGUIAR;RUA PARANA;763;CENTRO;BARRA VELHA;47.0;34311487;88390000;seriedh23aoaguiar@sed.sc.gov.br;Estaduais;RUA PARANA, 763 - CENTRO, BARRA VELHA - SC, 88390000;-26.63119;-48.68746
5150;EEB CONSELHEIRO MANOEL PHILIPPI;RUA PREFEITO GERMANO JOSE STEINBACH;0;VARGEM GRANDE;ÁGUAS MORNAS;48.0;36655786;88150000;conselheiror@sed.sc.gov.br;Estaduais;RUA PREFEITO GERMANO JOSE STEINBACH, 0 - VARGEM GRANDE, ÁGUAS MORNAS - SC, 88150000;-27.69559;-48.82327
29475;EEB CORA BATALHA DA SILVEIRA;R MARECHAL ARTUR DA COSTA E SILVA;870;CARAVAGGIO;LAGES;49.0;32898249;88509601;seriedh27csilveira@sed.sc.gov.br;Estaduais;R MARECHAL ARTUR DA COSTA E SILVA, 870 - CARAVAGGIO, LAGES - SC, 88509601;-27.82073;-50.30447
52280;EEB CORDILHEIRA ALTA;RUA LUIZ RANZAN;130;CENTRO;CORDILHEIRA ALTA;49.0;33580109;89819000;cordilheiraalta@sed.sc.gov.br;Estaduais;RUA LUIZ RANZAN, 130 - CENTRO, CORDILHEIRA ALTA - SC, 89819000;-26.98478;-52.60258
53473;EEB CORONEL ERNESTO BERTASO;RUA CASTRO ALVES;1104;SAO CRISTOVAO;CHAPECÓ;49.0;20497790;89803111;ernestobertaso@sed.sc.gov.br;Estaduais;RUA CASTRO ALVES, 1104 - SAO CRISTOVAO, CHAPECÓ - SC, 89803111;-27.09392;-52.63031
43796;EEB CORONEL GASPARINO ZORZI;R CORONEL LUCIDORO;1919;SAO SEBASTIAO;CAMPOS NOVOS;49.0;35413370;89620000;eebgasparinoz@sed.sc.gov.br;Estaduais;R CORONEL LUCIDORO, 1919 - SAO SEBASTIAO, CAMPOS NOVOS - SC, 89620000;-27.39405;-51.21863
53929;EEB CORONEL LARA RIBAS;RUA JOHN KENNEDY;1123;PASSO DOS FORTES;CHAPECÓ;49.0;3304-4078;89805500;lararibas@sed.sc.gov.br;Estaduais;RUA JOHN KENNEDY, 1123 - PASSO DOS FORTES, CHAPECÓ - SC, 89805500;-27.08018;-52.61366
138720;EEB COSTA CARNEIRO;RUA ARISTILIANO RAMOS;459;CENTRO;ORLEANS;48.0;36319428;88870000;eebccarneiro@sed.sc.gov.br;Estaduais;RUA ARISTILIANO RAMOS, 459 - CENTRO, ORLEANS - SC, 88870000;-28.35842;-49.29014
61115;EEB CRISTO REI;LINHA CRISTO REI;0;CRISTO REI;SÃO JOÃO DO OESTE;49.0;34725087;89897000;eebcristorei@sed.sc.gov.br;Estaduais;LINHA CRISTO REI, 0 - CRISTO REI, SÃO JOÃO DO OESTE - SC, 89897000;-27.03805;-53.58538
81434;EEB CRUZ E SOUSA;PRACA SEBASTIAO CABOTO;90;CENTRO;TIJUCAS;48.0;36656525;88200000;eebcsousa@sed.sc.gov.br;Estaduais;PRACA SEBASTIAO CABOTO, 90 - CENTRO, TIJUCAS - SC, 88200000;-27.25584;-48.65644
72281;EEB DANTE MOSCONI;RUA FERMIANO PAES CARNEIRO;0;GIOPPO;CAÇADOR;49.0;35616404;89507522;seriedh10dmosconi@sed.sc.gov.br;Estaduais;RUA FERMIANO PAES CARNEIRO, 0 - GIOPPO, CAÇADOR - SC, 89507522;-26.77407;-51.00188
1813;EEB DAYSE WERNER SALLES;PASCOAL SIMONE;80;COQUEIROS;FLORIANÓPOLIS;48.0;36656356;88080350;dayse@sed.sc.gov.br;Estaduais;PASCOAL SIMONE, 80 - COQUEIROS, FLORIANÓPOLIS - SC, 88080350;-27.6048;-48.58395
76457;EEB DE ARARANGUA;PADRE ANTONIO LUIS DIAS;66;CENTRO;ARARANGUÁ;48.0;35290113;88900065;eebararangua@sed.sc.gov.br;Estaduais;PADRE ANTONIO LUIS DIAS, 66 - CENTRO, ARARANGUÁ - SC, 88900065;-28.93208;-49.48426
79251;EEB DE MELEIRO;AV 7 DE SETEMBRO;600;CENTRO;MELEIRO;48.0;35290291;88920000;seriedh22meleiro@sed.sc.gov.br;Estaduais;AV 7 DE SETEMBRO, 600 - CENTRO, MELEIRO - SC, 88920000;-26.91127;-48.6574
1082;EEB DE MUQUEM;RUA MANOEL PETRONILHO DA SILVEIRA;1;SAO JOAO DO RIO VERMELHO;FLORIANÓPOLIS;48.0;36655631;88060100;muquem@sed.sc.gov.br;Estaduais;RUA MANOEL PETRONILHO DA SILVEIRA, 1 - SAO JOAO DO RIO VERMELHO, FLORIANÓPOLIS - SC, 88060100;-27.4609;-48.41625
65579;EEB DELMINDA SILVEIRA;RUA FAULHABER;100;CENTRO;MONDAÍ;49.0;34624133;89893000;eebdelminda@sed.sc.gov.br;Estaduais;RUA FAULHABER, 100 - CENTRO, MONDAÍ - SC, 89893000;-27.10451;-53.40051
49093;EEB DEODORO;RUA DOUTOR MARURI;911;CENTRO;CONCÓRDIA;49.0;34424136;89700170;seriedh6deodoro@sed.sc.gov.br;Estaduais;RUA DOUTOR MARURI, 911 - CENTRO, CONCÓRDIA - SC, 89700170;-27.23211;-52.02523
18325;EEB DEP ABEL AVILA DOS SANTOS;RUA PROFESSOR FRANCISCO STEDILE;76;ESTACAO;ASCURRA;47.0;33993058;89138000;eebdaas@sed.sc.gov.br;Estaduais;RUA PROFESSOR FRANCISCO STEDILE, 76 - ESTACAO, ASCURRA - SC, 89138000;-26.965;-49.36367
35319;EEB DEP ALTIR WEBBER DE MELLO;R CARLOS GOETTEN;584;BOM JESUS;CURITIBANOS;49.0;34123042;89520000;eebaltirwm@sed.sc.gov.br;Estaduais;R CARLOS GOETTEN, 584 - BOM JESUS, CURITIBANOS - SC, 89520000;-27.29269;-50.56365
45527;EEB DEP AUGUSTO BRESOLA;RUA VITORINO CHIOCHETA;187;CENTRO;VARGEM;49.0;35413351;89638000;eebdaugustob@sed.sc.gov.br;Estaduais;RUA VITORINO CHIOCHETA, 187 - CENTRO, VARGEM - SC, 89638000;-27.49244;-50.97895
22772;EEB DEP JOAO CUSTODIO DA LUZ;LADEIRA PORTO VELHO;191;BOA VISTA;RIO DO SUL;47.0;35263146;89167234;eebjc@sed.sc.gov.br;Estaduais;LADEIRA PORTO VELHO, 191 - BOA VISTA, RIO DO SUL - SC, 89167234;-27.22046;-49.63473
41882;EEB DEP NELSON PEDRINI;RUA PARA;76;SANTA TEREZA;JOAÇABA;49.0;35279592;89600000;eebdnp@sed.sc.gov.br;Estaduais;RUA PARA, 76 - SANTA TEREZA, JOAÇABA - SC, 89600000;-27.16721;-51.49646
68640;EEB DEP NILTON KUCKER;R ALFREDO TROMPOWSKI;506;VILA OPERARIA;ITAJAÍ;47.0;32240575;88303140;eebniltonkucker@sed.sc.gov.br;Estaduais;R ALFREDO TROMPOWSKI, 506 - VILA OPERARIA, ITAJAÍ - SC, 88303140;-26.90725;-48.67188
81183;EEB DEPUTADO VALERIO GOMES;RUA CORONEL GALLOTTI;729;PRACA;TIJUCAS;48.0;36655601;88200000;eebdvg@sed.sc.gov.br;Estaduais;RUA CORONEL GALLOTTI, 729 - PRACA, TIJUCAS - SC, 88200000;-27.24256;-48.62337
49107;EEB DOGELLO GOSS;BARRA DO TIGRE;0;RURAL;CONCÓRDIA;49.0;34826247;89700995;seriedh6dgoss@sed.sc.gov.br;Estaduais;BARRA DO TIGRE, 0 - RURAL, CONCÓRDIA - SC, 89700995;-27.23245;-51.94843
49255;EEB DOIS IRMAOS;R 17 DE FEVEREIRO;204;CENTRO;PRESIDENTE CASTELLO BRANCO;49.0;34826080;89745000;seriedh6dirmaos@sed.sc.gov.br;Estaduais;R 17 DE FEVEREIRO, 204 - CENTRO, PRESIDENTE CASTELLO BRANCO - SC, 89745000;-27.22257;-51.80574
69167;EEB DOM AFONSO NIEHUES;RUA SANTO AGOSTINHO;466;CORDEIROS;ITAJAÍ;47.0;33986419;88310200;seriedh17aniehues@sed.sc.gov.br;Estaduais;RUA SANTO AGOSTINHO, 466 - CORDEIROS, ITAJAÍ - SC, 88310200;-26.88774;-48.69417
73067;EEB DOM DANIEL HOSTIN;RUA CRUZ E SOUZA;50;CENTRO;MATOS COSTA;49.0;35616873;89420000;seriedh10dhostin@sed.sc.gov.br;Estaduais;RUA CRUZ E SOUZA, 50 - CENTRO, MATOS COSTA - SC, 89420000;-26.47354;-51.14809
46558;EEB DOM FELICIO C DA CUNHA VASCONCELOS;RUA JOSÉ KADES;570;INDUSTRIAL I;IRANI;49.0;91875803;89680000;seriedh6fcvasconcelos@sed.sc.gov.br;Estaduais;RUA JOSÉ KADES, 570 - INDUSTRIAL I, IRANI - SC, 89680000;-27.02092;-51.88952
21695;EEB DOM GREGORIO WARMELING;AV SAO FRANCISCO DO SUL;90;CENTRO;BALNEÁRIO BARRA DO SUL;47.0;34311421;89247000;eebdomgregorio@sed.sc.gov.br;Estaduais;AV SAO FRANCISCO DO SUL, 90 - CENTRO, BALNEÁRIO BARRA DO SUL - SC, 89247000;-26.46796;-48.61047
56855;EEB DOM HELDER CAMARA;RUA DUQUE DE CAXIAS;265;CENTRO;MODELO;49.0;36646569;89872000;seriedh2dhcamara@sed.sc.gov.br;Estaduais;RUA DUQUE DE CAXIAS, 265 - CENTRO, MODELO - SC, 89872000;-26.7816;-53.05705
4219;EEB DOM JAIME DE BARROS CAMARA;RUA JOSE COSME PAMPLONA;1447;BELA VISTA;PALHOÇA;48.0;36655696;88132700;eefdomjaime@sed.sc.gov.br;Estaduais;RUA JOSE COSME PAMPLONA, 1447 - BELA VISTA, PALHOÇA - SC, 88132700;-27.65491;-48.68364
1406;EEB DOM JAIME DE BARROS CAMARA;RODOVIA BALDICERO FILOMENO;7821;RIBEIRAO DA ILHA;FLORIANÓPOLIS;48.0;36655703;88064002;domjaime@sed.sc.gov.br;Estaduais;RODOVIA BALDICERO FILOMENO, 7821 - RIBEIRAO DA ILHA, FLORIANÓPOLIS - SC, 88064002;-27.72161;-48.56393
80292;EEB DOM JOAO BECKER;RUA VEREADOR OSCAR KRIEGER;10;JARDIM MALUCHE;BRUSQUE;47.0;32518172;88354425;eebdjb@sed.sc.gov.br;Estaduais;RUA VEREADOR OSCAR KRIEGER, 10 - JARDIM MALUCHE, BRUSQUE - SC, 88354425;-27.10718;-48.92514
8745;EEB DOM JOAQUIM;RUA SENADOR NEREU RAMOS;1010;CENTRO;BRAÇO DO NORTE;48.0;36511867;88750000;seriedh36djoaquim@sed.sc.gov.br;Estaduais;RUA SENADOR NEREU RAMOS, 1010 - CENTRO, BRAÇO DO NORTE - SC, 88750000;-28.27663;-49.16756
72370;EEB DOM ORLANDO DOTTI;RUA IRMÃO TOMAZ;293;BOM JESUS;CAÇADOR;49.0;35615987;89504670;eebdod@sed.sc.gov.br;Estaduais;RUA IRMÃO TOMAZ, 293 - BOM JESUS, CAÇADOR - SC, 89504670;-26.77787;-51.02579
55530;EEB DOM PEDRO II;RUA INDEPENDENCIA;714;CENTRO;CAIBI;49.0;34624095;89888000;seriedh29dpedro2@sed.sc.gov.br;Estaduais;RUA INDEPENDENCIA, 714 - CENTRO, CAIBI - SC, 89888000;-27.07707;-53.24885
21440;EEB DOM PIO DE FREITAS;R ELLY SOARES;358;FLORESTA;JOINVILLE;47.0;34611259;89211715;eebdompio@sed.sc.gov.br;Estaduais;R ELLY SOARES, 358 - FLORESTA, JOINVILLE - SC, 89211715;-26.3368;-48.84447
88161;EEB DOM VITAL;RUA 03 DE MAIO;250;CENTRO;PONTE SERRADA;49.0;33822140;89683000;elianecosta@sed.sc.gov.br;Estaduais;RUA 03 DE MAIO, 250 - CENTRO, PONTE SERRADA - SC, 89683000;-26.8716;-52.01395
93483;EEB DOMINGOS BARBOSA CABRAL;RODOVIA SC 438 KM 6;6;CENTRO;PESCARIA BRAVA;48.0;36477780;88798000;domingosbcabral@sed.sc.gov.br;Estaduais;RODOVIA SC 438 KM 6, 6 - CENTRO, PESCARIA BRAVA - SC, 88798000;-28.39719;-48.8869
49654;EEB DOMINGOS MAGARINOS;RUA PEDRO BALBINOT;200;DISTRITO DE TAMANDUA;CONCÓRDIA;49.0;34826033;89715899;seriedh6dmagarinos@sed.sc.gov.br;Estaduais;RUA PEDRO BALBINOT, 200 - DISTRITO DE TAMANDUA, CONCÓRDIA - SC, 89715899;-27.22999;-51.98382
18309;EEB DOMINGOS SAVIO;RUA DOM BOSCO;341;CENTRO;ASCURRA;47.0;33830268;89138000;eebds@sed.sc.gov.br;Estaduais;RUA DOM BOSCO, 341 - CENTRO, ASCURRA - SC, 89138000;-26.95858;-49.37838
2674;EEB DR ADERBAL RAMOS DA SILVA;AV GANCHOS;1050;GANCHOS DO MEIO;GOVERNADOR CELSO RAMOS;48.0;36654404;88190000;draderbal@sed.sc.gov.br;Estaduais;AV GANCHOS, 1050 - GANCHOS DO MEIO, GOVERNADOR CELSO RAMOS - SC, 88190000;-27.31275;-48.55197
56120;EEB DR CARLOS CULMEY;RUA ANITA GARIBALDI;947;CRISTO REI;SÃO CARLOS;49.0;34624100;89885000;eebculmey@sed.sc.gov.br;Estaduais;RUA ANITA GARIBALDI, 947 - CRISTO REI, SÃO CARLOS - SC, 89885000;-27.08803;-53.00289
27430;EEB DR FERNANDO FERREIRA DE MELLO;RUA 7 DE SETEMBRO;70;GUANABARA;RIO DO CAMPO;47.0;35628446;89198000;seriedh34ffmello@sed.sc.gov.br;Estaduais;RUA 7 DE SETEMBRO, 70 - GUANABARA, RIO DO CAMPO - SC, 89198000;-26.94406;-50.13854
39462;EEB DR FRANCISCO IZABEL;RUA ANTONIO PROCOPIAK;0;JARDIM AMERICA;MAFRA;47.0;36470306;89300643;eebdfi@sed.sc.gov.br;Estaduais;RUA ANTONIO PROCOPIAK, 0 - JARDIM AMERICA, MAFRA - SC, 89300643;-26.12223;-49.78397
95974;EEB DR FREDERICO ROLLA;RUA CONSTANCIO KRUMMEL;435;CENTRO;ATALANTA;47.0;35338800;88410000;frederico_rolla@sed.sc.gov.br;Estaduais;RUA CONSTANCIO KRUMMEL, 435 - CENTRO, ATALANTA - SC, 88410000;-27.42334;-49.78331
20427;EEB DR GEORG KELLER;SAO GONCALO;523;JARDIM IRRIU;JOINVILLE;47.0;34611543;89224330;eebdrgeorgkeller@sed.sc.gov.br;Estaduais;SAO GONCALO, 523 - JARDIM IRRIU, JOINVILLE - SC, 89224330;-26.26768;-48.80447
59803;EEB DR GUILHERME JOSE MISSEN;RUA COLUMBIA;404;SAO LUIZ;SÃO MIGUEL DO OESTE;49.0;36312981;89900000;eebguilhermem@sed.sc.gov.br;Estaduais;RUA COLUMBIA, 404 - SAO LUIZ, SÃO MIGUEL DO OESTE - SC, 89900000;-26.73923;-53.52158
24023;EEB DR HERMANN BLUMENAU;RUA BLUMENAU;138;VILA NOVA;TROMBUDO CENTRAL;47.0;35263149;89176000;eebhm@sed.sc.gov.br;Estaduais;RUA BLUMENAU, 138 - VILA NOVA, TROMBUDO CENTRAL - SC, 89176000;-27.30917;-49.79623
72427;EEB DR JOAO SANTO DAMO;RUA MILTON CESAR PEGORARO;31;SAO CRISTOVAO;CAÇADOR;49.0;35616419;89509675;seriedh10jsdamo@sed.sc.gov.br;Estaduais;RUA MILTON CESAR PEGORARO, 31 - SAO CRISTOVAO, CAÇADOR - SC, 89509675;-26.78522;-50.97595
20486;EEB DR JORGE LACERDA;RUA SANTO AGOSTINHO;266;GUANABARA;JOINVILLE;47.0;34311490;89207650;eebdrjorgelacerda@sed.sc.gov.br;Estaduais;RUA SANTO AGOSTINHO, 266 - GUANABARA, JOINVILLE - SC, 89207650;-26.31866;-48.82724
16225;EEB DR MAX TAVARES D AMARAL;RUA VEREADOR ROMARIO DA CONCEICAO BADIA;365;ITOUPAVA NORTE;BLUMENAU;47.0;33788384;89053599;eebmaxtavares@sed.sc.gov.br;Estaduais;RUA VEREADOR ROMARIO DA CONCEICAO BADIA, 365 - ITOUPAVA NORTE, BLUMENAU - SC, 89053599;-26.87278;-49.0852
9113;EEB DR MIGUEL DE PATTA;RUA NEREU RAMOS;480;CENTRO;GRÃO PARÁ;48.0;36511858;88890000;seriedh36mpatta@sed.sc.gov.br;Estaduais;RUA NEREU RAMOS, 480 - CENTRO, GRÃO PARÁ - SC, 88890000;-28.18665;-49.21666
72419;EEB DR NAYA GONZAGA SAMPAIO;ADOLFO FRANZ GROTH;421;DER;CAÇADOR;49.0;35616414;89506111;seriedh10ngsampaio@sed.sc.gov.br;Estaduais;ADOLFO FRANZ GROTH, 421 - DER, CAÇADOR - SC, 89506111;-26.76854;-51.02009
6688;EEB DR OTTO FEUERSCHUETTE;RUA RAIMUNDO CORREA;100;CENTRO;CAPIVARI DE BAIXO;48.0;36319309;88745000;seriedh20ofeuerschuette@sed.sc.gov.br;Estaduais;RUA RAIMUNDO CORREA, 100 - CENTRO, CAPIVARI DE BAIXO - SC, 88745000;-28.43971;-48.95932
108839;EEB DR PAULO FONTES;RUA PROF OSNI BARBATO;168;SANTO ANTONIO DE LISBOA;FLORIANÓPOLIS;48.0;32352192;88050450;paulofontes@sed.sc.gov.br;Estaduais;RUA PROF OSNI BARBATO, 168 - SANTO ANTONIO DE LISBOA, FLORIANÓPOLIS - SC, 88050450;-27.50757;-48.51794
20443;EEB DR PAULO MEDEIROS;RUA ANTÔNIO JOSÉ DA COSTA;0;ADHEMAR GARCIA;JOINVILLE;47.0;34611298;89230743;eebpm@sed.sc.gov.br;Estaduais;RUA ANTÔNIO JOSÉ DA COSTA, 0 - ADHEMAR GARCIA, JOINVILLE - SC, 89230743;-26.31925;-48.8059
93491;EEB DR RENATO RAMOS DA SILVA;AV CALISTRATO MULLER SALLES;1983;PORTINHO;LAGUNA;48.0;36477814;88790000;renatoramos@sed.sc.gov.br;Estaduais;AV CALISTRATO MULLER SALLES, 1983 - PORTINHO, LAGUNA - SC, 88790000;-28.45938;-48.79066
53872;EEB DR SERAFIN ENOSS BERTASO;AVENIDA PROGRESSO;900;CENTRO;NOVA ITABERABA;49.0;33270024;89818000;serafinbertaso@sed.sc.gov.br;Estaduais;AVENIDA PROGRESSO, 900 - CENTRO, NOVA ITABERABA - SC, 89818000;-26.94344;-52.80731
61956;EEB DR THEODURETO DE FARIA SOUTO;SALDANHA DA GAMA;1200;PRIMEIRO DE MAIO;DIONÍSIO CERQUEIRA;49.0;36443344;89950000;theodureto@sed.sc.gov.br;Estaduais;SALDANHA DA GAMA, 1200 - PRIMEIRO DE MAIO, DIONÍSIO CERQUEIRA - SC, 89950000;-26.26361;-53.63004
20397;EEB DR TUFI DIPPE;R ANTONIO DA SILVA;62;IRIRIU;JOINVILLE;47.0;34812424;89227770;eebdrtufidippe@sed.sc.gov.br;Estaduais;R ANTONIO DA SILVA, 62 - IRIRIU, JOINVILLE - SC, 89227770;-26.27537;-48.81161
12831;EEB DR TULLO CAVALLAZZI;RUA MANOEL BASÍLIO RODOLFO FERNANDES;158;RIO FIORITA;SIDERÓPOLIS;48.0;34031337;88860000;eebtcavallazzi@sed.sc.gov.br;Estaduais;RUA MANOEL BASÍLIO RODOLFO FERNANDES, 158 - RIO FIORITA, SIDERÓPOLIS - SC, 88860000;-28.63027;-49.40936
53880;EEB DRUZIANA SARTORI;AVENIDA IRINEU BORNHAUSEN;607;PALMITAL;CHAPECÓ;49.0;33223364;89814650;druzianasartori@sed.sc.gov.br;Estaduais;AVENIDA IRINEU BORNHAUSEN, 607 - PALMITAL, CHAPECÓ - SC, 89814650;-27.12123;-52.61831
1783;EEB EDITH GAMA RAMOS;RUA DIB CHEREM;2773;CAPOEIRAS;FLORIANÓPOLIS;48.0;36655627;88090000;edith@sed.sc.gov.br;Estaduais;RUA DIB CHEREM, 2773 - CAPOEIRAS, FLORIANÓPOLIS - SC, 88090000;-27.59909;-48.59736
155098;EEB ELFRIDA CRISTINO DA SILVA;RUA MARIA IOLANDA ROCHA;66;SAO VICENTE;ITAJAÍ;47.0;33986128;88309608;eemelfridacristinodasilva17@sed.sc.gov.br;Estaduais;RUA MARIA IOLANDA ROCHA, 66 - SAO VICENTE, ITAJAÍ - SC, 88309608;-26.91355;-48.69672
48739;EEB ELIDIA MARIA BIEZUS;BARRA BONITA;0;INTERIOR;CONCÓRDIA;49.0;34428463;89715899;maritaniabonissoni@sed.sc.gov.br;Estaduais;BARRA BONITA, 0 - INTERIOR, CONCÓRDIA - SC, 89715899;-27.23163;-52.02437
50318;EEB ELISABETHE MATILDE SIMON;DISTRITO DE NOVA TEUTONIA;30;RURAL;SEARA;49.0;3452-3773;89770000;seriedh33emsimon@sed.sc.gov.br;Estaduais;DISTRITO DE NOVA TEUTONIA, 30 - RURAL, SEARA - SC, 89770000;-27.15791;-52.31482
24139;EEB ELISEU GUILHERME;R DR GETULIO VARGAS;1545;BELA VISTA,;IBIRAMA;47.0;33578974;89140000;seriedh14eguilherme@sed.sc.gov.br;Estaduais;R DR GETULIO VARGAS, 1545 - BELA VISTA,, IBIRAMA - SC, 89140000;-27.05027;-49.53777
101168;EEB ELIZABETH KONDER REIS;RUA GUSTAVO BERNEDT;987;CORDEIROS;ITAJAÍ;47.0;33986129;88310550;eebelizabethkreis@sed.sc.gov.br;Estaduais;RUA GUSTAVO BERNEDT, 987 - CORDEIROS, ITAJAÍ - SC, 88310550;-26.8967;-48.70062
31062;EEB ELZA DEEKE;JOSEPH WILLIAM SCHALLER;38;POCO RICO;OTACÍLIO COSTA;49.0;3289-6451;88540000;seriedh27edeeke@sed.sc.gov.br;Estaduais;JOSEPH WILLIAM SCHALLER, 38 - POCO RICO, OTACÍLIO COSTA - SC, 88540000;-27.502;-50.12525
91650;EEB ELZA GRANZOTTO FERRAZ;RUA CARLOS FREDERICO RAMTHUM;16955;SANTA LUZIA;JARAGUÁ DO SUL;47.0;32769462;89267000;elzagranzotto@sed.sc.gov.br;Estaduais;RUA CARLOS FREDERICO RAMTHUM, 16955 - SANTA LUZIA, JARAGUÁ DO SUL - SC, 89267000;-26.36777;-49.12657
34932;EEB EMB EDMUNDO DA LUZ PINTO;RUA CARLOS GOMES;166;UNIVERSITÁRIO;CURITIBANOS;49.0;34123050;89520000;eebeelp@sed.sc.gov.br;Estaduais;RUA CARLOS GOMES, 166 - UNIVERSITÁRIO, CURITIBANOS - SC, 89520000;-27.30371;-50.56546
66745;EEB EMILIA BOOS LAUS SCHMIDT;AV ALFREDO GIACOMO SCOPEL;825;CENTRO;SALTINHO;49.0;36646562;89981000;seriedh2ebschmidt@sed.sc.gov.br;Estaduais;AV ALFREDO GIACOMO SCOPEL, 825 - CENTRO, SALTINHO - SC, 89981000;-26.60828;-53.05818
29130;EEB EMILIANO RAMOS;RUA ATANASIO SILVA;125;CENTRO;CAPÃO ALTO;49.0;32898265;88548000;seriedh27eramos@sed.sc.gov.br;Estaduais;RUA ATANASIO SILVA, 125 - CENTRO, CAPÃO ALTO - SC, 88548000;-27.93939;-50.51217
16136;EEB EMILIO BAUMGART;RUA DR PEDRO ZIMMERMANN;9611;ITOUPAVA CENTRAL;BLUMENAU;47.0;33788366;89069001;eebemiliob@sed.sc.gov.br;Estaduais;RUA DR PEDRO ZIMMERMANN, 9611 - ITOUPAVA CENTRAL, BLUMENAU - SC, 89069001;-26.7908;-49.08667
66753;EEB EMILIO GARRASTAZU MEDICI;RUA ULISSES VIGANÓ;919;CENTRO;CAMPO ERÊ;49.0;36651335;89980000;eebemilio@sed.sc.gov.br;Estaduais;RUA ULISSES VIGANÓ, 919 - CENTRO, CAMPO ERÊ - SC, 89980000;-26.39424;-53.0873
94161;EEB ENG ALVARO CATAO;RUA ARITIANO GONCALVES;150;VILA NOVA ALVORADA;IMBITUBA;48.0;36477816;88780000;alvarocatao@sed.sc.gov.br;Estaduais;RUA ARITIANO GONCALVES, 150 - VILA NOVA ALVORADA, IMBITUBA - SC, 88780000;-28.21756;-48.66968
20362;EEB ENG ANNES GUALBERTO;R GUAIRA;129;IRIRIU;JOINVILLE;47.0;34611541;89227447;eebannesg@sed.sc.gov.br;Estaduais;R GUAIRA, 129 - IRIRIU, JOINVILLE - SC, 89227447;-26.27025;-48.82569
21946;EEB ENG ANNES GUALBERTO;R FRANCISCO MASCARENHAS;2552;PAULAS;SÃO FRANCISCO DO SUL;47.0;34611585;89240000;eebgualbertosfs@sed.sc.gov.br;Estaduais;R FRANCISCO MASCARENHAS, 2552 - PAULAS, SÃO FRANCISCO DO SUL - SC, 89240000;-26.23031;-48.61529
8761;EEB ENG ANNES GUALBERTO;RUA SAO BASILIO;2076;SAO BASILIO;BRAÇO DO NORTE;48.0;36511873;88750000;seriedh36agualberto@sed.sc.gov.br;Estaduais;RUA SAO BASILIO, 2076 - SAO BASILIO, BRAÇO DO NORTE - SC, 88750000;-28.28617;-49.16321
14672;EEB ENG ERNANI COTRIN;YOLANDA MARIA DAL BÓ MACHADO;0;GUATA;LAURO MULLER;48.0;34031309;88880000;eebecotrin@sed.sc.gov.br;Estaduais;YOLANDA MARIA DAL BÓ MACHADO, 0 - GUATA, LAURO MULLER - SC, 88880000;-28.37927;-49.43829
11630;EEB ENG SEBASTIAO TOLEDO DOS SANTOS;RUA DA REPUBLICA;67;COMERCIARIO;CRICIÚMA;48.0;34031342;88802420;eebsts@sed.sc.gov.br;Estaduais;RUA DA REPUBLICA, 67 - COMERCIARIO, CRICIÚMA - SC, 88802420;-28.68398;-49.36589
111686;EEB ERICH GRUETZMACHER;RUA AUGUSTO DEMARCHI;399;TRES RIOS DO SUL;JARAGUÁ DO SUL;47.0;32769450;89252240;erichgruetzmacher@sed.sc.gov.br;Estaduais;RUA AUGUSTO DEMARCHI, 399 - TRES RIOS DO SUL, JARAGUÁ DO SUL - SC, 89252240;-26.45757;-49.13531
15946;EEB ERWIN RADTKE;RUA ERWIN MANZKE;13375;VILA ITOUPAVA;BLUMENAU;47.0; 33788529;89075505;eeberwinradtke@sed.sc.gov.br;Estaduais;RUA ERWIN MANZKE, 13375 - VILA ITOUPAVA, BLUMENAU - SC, 89075505;-26.71502;-49.06815
89842;EEB ESTANISLAU SCHUMANN;R PROF ALFREDO LUDKA;329;CENTRO;BELA VISTA DO TOLDO;47.0;36274230;89478000;estanislautoldo@sed.sc.gov.br;Estaduais;R PROF ALFREDO LUDKA, 329 - CENTRO, BELA VISTA DO TOLDO - SC, 89478000;-26.27637;-50.46542
73725;EEB ESTHER CREMA MARMENTINI;SEVERINO JOSE PASQUAL;0;SANTA GEMA;VIDEIRA;49.0;35335489;89566880;eebesthercrema@sed.sc.gov.br;Estaduais;SEVERINO JOSE PASQUAL, 0 - SANTA GEMA, VIDEIRA - SC, 89566880;-26.99122;-51.18311
91855;EEB EUCLIDES DA CUNHA;R HENRIQUE DEMATHE;15;NEREU RAMOS;JARAGUÁ DO SUL;47.0;32769441;89265730;euclidesdacunha@sed.sc.gov.br;Estaduais;R HENRIQUE DEMATHE, 15 - NEREU RAMOS, JARAGUÁ DO SUL - SC, 89265730;-26.45381;-49.16714
76902;EEB EUFRAZIO AVELINO ROCHA;RUA EUFRAZIO AVELINO ROCHA;115;VILA BEATRIZ;MARACAJÁ;48.0;35290120;88915000;eebearocha@sed.sc.gov.br;Estaduais;RUA EUFRAZIO AVELINO ROCHA, 115 - VILA BEATRIZ, MARACAJÁ - SC, 88915000;-28.86085;-49.45259
144070;EEB EURICO PINZ;GUIDO BRANDT;0;SAO MIGUEL;FRAIBURGO;49.0;35335421;89580000;eebeuricopinz@sed.sc.gov.br;Estaduais;GUIDO BRANDT, 0 - SAO MIGUEL, FRAIBURGO - SC, 89580000;-27.04944;-50.93474
67806;EEB EVERARDO BACKHEUSER;RUA 2 DE JULHO;543;CENTRO;DESCANSO;49.0;36312975;89910000;seriedh1ebackheuser@sed.sc.gov.br;Estaduais;RUA 2 DE JULHO, 543 - CENTRO, DESCANSO - SC, 89910000;-26.82114;-53.504
26441;EEB EXPEDICIONARIO MARIO NARDELLI;RUA IRMA LILIA RAFFAELLI;203;JARDIM DAS HORTENSIAS;RIO DO OESTE;47.0;35263134;89180000;eebemn@sed.sc.gov.br;Estaduais;RUA IRMA LILIA RAFFAELLI, 203 - JARDIM DAS HORTENSIAS, RIO DO OESTE - SC, 89180000;-27.18809;-49.81287
31100;EEB FAZENDA OLINKRAFT;ANTONIO DE SOUZA COELHO;1770;IGARAS;OTACÍLIO COSTA;49.0;32896360;88540000;seriedh27folinkraft@sed.sc.gov.br;Estaduais;ANTONIO DE SOUZA COELHO, 1770 - IGARAS, OTACÍLIO COSTA - SC, 88540000;-27.48211;-50.12508
57843;EEB FAZENDA TRIANGULO;AVENIDA PRESIDENTE KENNEDY;34;CENTRO;JARDINÓPOLIS;49.0;33462453;89848000;seriedh32ftriangulo@sed.sc.gov.br;Estaduais;AVENIDA PRESIDENTE KENNEDY, 34 - CENTRO, JARDINÓPOLIS - SC, 89848000;-26.72382;-52.85974
728;EEB FELICIANO NUNES PIRES;AV MADRE BENVENUTA;265;TRINDADE;FLORIANÓPOLIS;48.0;3331-1965;88036500;cfnpsec@pm.sc.gov.br;Estaduais;AV MADRE BENVENUTA, 265 - TRINDADE, FLORIANÓPOLIS - SC, 88036500;-27.59238;-48.51936
80764;EEB FELICIANO PIRES;RUA RODRIGUES ALVES;250;CENTRO;BRUSQUE;47.0;32518200;88350160;eebfp@sed.sc.gov.br;Estaduais;RUA RODRIGUES ALVES, 250 - CENTRO, BRUSQUE - SC, 88350160;-27.09583;-48.91344
92339;EEB FELIPE MANKE;MASSARANDUBINHA;2920;MASSARANDUBINHA;MASSARANDUBA;47.0;32769382;89108000;felipemanke@sed.sc.gov.br;Estaduais;MASSARANDUBINHA, 2920 - MASSARANDUBINHA, MASSARANDUBA - SC, 89108000;-26.61254;-49.00893
55239;EEB FELISBERTO DE CARVALHO;R MACHADO DE ASSIS;150;CENTRO;PALMITOS;49.0;34624071;89887000;seriedh29fcarvalho@sed.sc.gov.br;Estaduais;R MACHADO DE ASSIS, 150 - CENTRO, PALMITOS - SC, 89887000;-27.07407;-53.16665
10677;EEB FERNANDO JOSE CARDOSO;ESTRADA GERAL DE INDAIAL;1;INDAIAL;GRAVATAL;48.0;36319735;88735000;seriedh20fcardoso@sed.sc.gov.br;Estaduais;ESTRADA GERAL DE INDAIAL, 1 - INDAIAL, GRAVATAL - SC, 88735000;-26.96652;-49.30907
22632;EEB FRANCISCO ALTAMIR WAGNER;ESTRADA BOA ESPERANÇA;2590;FUNDO CANOAS;RIO DO SUL;47.0;35263092;89163554;seriedh12fwagner@sed.sc.gov.br;Estaduais;ESTRADA BOA ESPERANÇA, 2590 - FUNDO CANOAS, RIO DO SUL - SC, 89163554;-27.19831;-49.67438
80284;EEB FRANCISCO DE ARAUJO BRUSQUE;RUA PEDRO GRACHER;43;SAO LUIZ;BRUSQUE;47.0;32518242;88351470;eebfab@sed.sc.gov.br;Estaduais;RUA PEDRO GRACHER, 43 - SAO LUIZ, BRUSQUE - SC, 88351470;-27.08096;-48.91668
21105;EEB FRANCISCO EBERHARDT;ESTRADA RIO DA PRATA;0;PIRABEIRABA;JOINVILLE;47.0;34611578;89239470;eebfh@sed.sc.gov.br;Estaduais;ESTRADA RIO DA PRATA, 0 - PIRABEIRABA, JOINVILLE - SC, 89239470;-26.20275;-48.91424
51446;EEB FRANCISCO MACIEL BAGESTON;RUA BAHIA;351;CENTRO;PAIAL;49.0;34528642;89765000;seriedh33fbageston@sed.sc.gov.br;Estaduais;RUA BAHIA, 351 - CENTRO, PAIAL - SC, 89765000;-27.25588;-52.49879
29467;EEB FRANCISCO MANFROI;RUA CLUBE DE REGATAS FLAMENGO;0;SANTA MONICA;LAGES;49.0;32896317;88516010;seriedh27fmanfroi@sed.sc.gov.br;Estaduais;RUA CLUBE DE REGATAS FLAMENGO, 0 - SANTA MONICA, LAGES - SC, 88516010;-27.80621;-50.37044
83062;EEB FRANCISCO MAZZOLA;RUA FRANCISCO VALLE;27;CENTRO;NOVA TRENTO;48.0;32672155;88270000;eebfm@sed.sc.gov.br;Estaduais;RUA FRANCISCO VALLE, 27 - CENTRO, NOVA TRENTO - SC, 88270000;-27.28639;-48.92897
41084;EEB FRANCISCO NICOLAU FUCK;BR 116 KM 99;0;RESIDENCIA FUCK;MONTE CASTELO;47.0;36470334;89380000;seriedh25fnfuck@sed.sc.gov.br;Estaduais;BR 116 KM 99, 0 - RESIDENCIA FUCK, MONTE CASTELO - SC, 89380000;-26.45953;-50.2365
3271;EEB FRANCISCO TOLENTINO;RUA XAVIER CAMARA;0;CENTRO;SÃO JOSÉ;48.0;36655802;88103015;tolentino@sed.sc.gov.br;Estaduais;RUA XAVIER CAMARA, 0 - CENTRO, SÃO JOSÉ - SC, 88103015;-27.61609;-48.62818
97942;EEB FREDERICO FENDRICH;RODOVIA ACESSO SUL PEDRO BAYERL;785;SERRA ALTA;SÃO BENTO DO SUL;47.0;36470393;89291585;seriedh25ffendrich@sed.sc.gov.br;Estaduais;RODOVIA ACESSO SUL PEDRO BAYERL, 785 - SERRA ALTA, SÃO BENTO DO SUL - SC, 89291585;-26.27676;-49.40016
17655;EEB FREDERICO HARDT;LEOBERTO LEAL;84;TAPAJOS;INDAIAL;47.0;33330068;89080166;seriedh35fhardt@sed.sc.gov.br;Estaduais;LEOBERTO LEAL, 84 - TAPAJOS, INDAIAL - SC, 89080166;-26.90255;-49.23992
5991;EEB FREDERICO SANTOS;MANOEL ISIDORO DOS SANTOS;3;CENTRO;PAULO LOPES;48.0;36655614;88490000;fredericosantos@sed.sc.gov.br;Estaduais;MANOEL ISIDORO DOS SANTOS, 3 - CENTRO, PAULO LOPES - SC, 88490000;-27.96203;-48.67209
75949;EEB FREI CANECA;RUA ARTUR BARTH;556;CENTRO;LEBON RÉGIS;49.0;35616422;89515000;seriedh10fcaneca@sed.sc.gov.br;Estaduais;RUA ARTUR BARTH, 556 - CENTRO, LEBON RÉGIS - SC, 89515000;-26.93145;-50.69314
47350;EEB FREI CRESPIM;DISTRITO DE SANTA LUCIA;0;INTERIOR;OURO;49.0;35279650;89663000;eebfc@sed.sc.gov.br;Estaduais;DISTRITO DE SANTA LUCIA, 0 - INTERIOR, OURO - SC, 89663000;19.35844;-99.25325
73180;EEB FREI EVARISTO;RUA SAO LUIZ;523;CENTRO;IOMERÊ;49.0;35335486;89558000;eebfreievaristo@sed.sc.gov.br;Estaduais;RUA SAO LUIZ, 523 - CENTRO, IOMERÊ - SC, 89558000;-27.00152;-51.24507
16934;EEB FREI GODOFREDO;R MANOEL BITTENCOURT;330;SETE DE SETEMBRO;GASPAR;47.0;33788393;89114758;eebfreigodofredo@sed.sc.gov.br;Estaduais;R MANOEL BITTENCOURT, 330 - SETE DE SETEMBRO, GASPAR - SC, 89114758;-26.92684;-48.94285
19640;EEB FREI LUCINIO KORTE;RUA SANTA CATARINA;416;CENTRO;DOUTOR PEDRINHO;47.0;33993045;89126000;eebfreilkorte@sed.sc.gov.br;Estaduais;RUA SANTA CATARINA, 416 - CENTRO, DOUTOR PEDRINHO - SC, 89126000;-26.7174;-49.48275
97217;EEB FREI MANOEL PHILIPPI;AV BERNARDINO DE ANDRADE;87;CENTRO;IMBUIA;47.0;35338811;88440000;freimanoel_philippi@sed.sc.gov.br;Estaduais;AV BERNARDINO DE ANDRADE, 87 - CENTRO, IMBUIA - SC, 88440000;-27.49236;-49.4235
89265;EEB FREI MENANDRO KAMPS;AV ABRAAO MUSSI;4091;SAO CRISTOVAO;TRÊS BARRAS;47.0;36274223;89490000;menandroktb@sed.sc.gov.br;Estaduais;AV ABRAAO MUSSI, 4091 - SAO CRISTOVAO, TRÊS BARRAS - SC, 89490000;-26.15269;-50.37977
29483;EEB FREI NICODEMOS;RUA CANOINHAS;0;PETROPOLIS;LAGES;49.0;32898232;88505240;seriedh27fnicodemos@sed.sc.gov.br;Estaduais;RUA CANOINHAS, 0 - PETROPOLIS, LAGES - SC, 88505240;-27.80923;-50.34503
16640;EEB FREI POLICARPO;RUA BONIFACIO HAENDCHEN;4400;BELCHIOR ALTO;GASPAR;47.0;33788396;89117770;eebfreipolicarpo@sed.sc.gov.br;Estaduais;RUA BONIFACIO HAENDCHEN, 4400 - BELCHIOR ALTO, GASPAR - SC, 89117770;-26.82732;-49.02916
34940;EEB FREI ROGERIO;RUA SANTA CATARINA;414;SÃO SEBASTIÃO;PONTE ALTA DO NORTE;49.0;34123056;89535000;eebfg@sed.sc.gov.br;Estaduais;RUA SANTA CATARINA, 414 - SÃO SEBASTIÃO, PONTE ALTA DO NORTE - SC, 89535000;-27.16181;-50.47224
94420;EEB FRIDOLINO HULSE;RUA FRIDOLINO HULSE;83;CENTRO;SÃO MARTINHO;48.0;36511857;88765000;seriedh36fhulse@sed.sc.gov.br;Estaduais;RUA FRIDOLINO HULSE, 83 - CENTRO, SÃO MARTINHO - SC, 88765000;-28.16699;-48.97841
42722;EEB GALEAZZO PAGANELLI;RUA ARAUCARIA;0;CAMPINA DA ALEGRIA;VARGEM BONITA;49.0;35279658;89675000;eebgaleazzo@sed.sc.gov.br;Estaduais;RUA ARAUCARIA, 0 - CAMPINA DA ALEGRIA, VARGEM BONITA - SC, 89675000;-27.00904;-51.73895
3280;EEB GAMA ROSA;R JOAO LEOPOLDO REITZ;74;CENTRO;SÃO PEDRO DE ALCÂNTARA;48.0;36654423;88125000;gamarosa@sed.sc.gov.br;Estaduais;R JOAO LEOPOLDO REITZ, 74 - CENTRO, SÃO PEDRO DE ALCÂNTARA - SC, 88125000;-27.56688;-48.80191
29980;EEB GEN JOSE PINTO SOMBRA;RUA DIAS VELHO;207;GUARUJA;LAGES;49.0;32898243;88521350;seriedh27jsombra@sed.sc.gov.br;Estaduais;RUA DIAS VELHO, 207 - GUARUJA, LAGES - SC, 88521350;-27.77975;-50.29062
51721;EEB GEN LIBERATO BITTENCOURT;AV TANCREDO NEVES;1081;CENTRO;ITÁ;49.0;34528650;89760000;seriedh33lbittencourt@sed.sc.gov.br;Estaduais;AV TANCREDO NEVES, 1081 - CENTRO, ITÁ - SC, 89760000;-27.27683;-52.34795
6777;EEB GEN OSVALDO PINTO DA VEIGA;RUA DEP FRANCISCO DE SOUZA NEVES;1196;CENTRO;CAPIVARI DE BAIXO;48.0;36319364;88745000;seriedh20opveiga@sed.sc.gov.br;Estaduais;RUA DEP FRANCISCO DE SOUZA NEVES, 1196 - CENTRO, CAPIVARI DE BAIXO - SC, 88745000;-28.44329;-48.95498
89117;EEB GENERAL OSORIO;R PROFA NELIDE MARIA ANDRADE FIGUEIREDO;276;CENTRO;TRÊS BARRAS;47.0;36274222;89490000;eebgeneralosorio@sed.sc.gov.br;Estaduais;R PROFA NELIDE MARIA ANDRADE FIGUEIREDO, 276 - CENTRO, TRÊS BARRAS - SC, 89490000;-26.10604;-50.32064
92665;EEB GENERAL RONDON;RUA 11 DE NOVEMBRO;2387;CENTRO;MASSARANDUBA;47.0;32769495;89108000;generalrondon@sed.sc.gov.br;Estaduais;RUA 11 DE NOVEMBRO, 2387 - CENTRO, MASSARANDUBA - SC, 89108000;-26.60945;-49.00425
24473;EEB GERTRUD AICHINGER;RUA IMBUIA;150;CENTRO;IBIRAMA;47.0;33578986;89140000;eebga@sed.sc.gov.br;Estaduais;RUA IMBUIA, 150 - CENTRO, IBIRAMA - SC, 89140000;-27.06295;-49.52294
1414;EEB GETULIO VARGAS;RUA JOAO MOTTA ESPEZIM;499;SACO DOS LIMOES;FLORIANÓPOLIS;48.0;36656699;88045400;eebgetuliovargas@sed.sc.gov.br;Estaduais;RUA JOAO MOTTA ESPEZIM, 499 - SACO DOS LIMOES, FLORIANÓPOLIS - SC, 88045400;-27.60776;-48.5351
20818;EEB GIOVANI PASQUALINI FARACO;RUA DONA FRANCISCA;4957;SANTO ANTONIO;JOINVILLE;47.0;34611547;89218112;seriedh23gpfaraco@sed.sc.gov.br;Estaduais;RUA DONA FRANCISCA, 4957 - SANTO ANTONIO, JOINVILLE - SC, 89218112;-26.26646;-48.85936
30457;EEB GODOLFIN NUNES DE SOUZA;RUA NOSSA SENHORA DA PENHA;290;PENHA;LAGES;49.0;32898248;88525570;seriedh27gsouza@sed.sc.gov.br;Estaduais;RUA NOSSA SENHORA DA PENHA, 290 - PENHA, LAGES - SC, 88525570;-27.81212;-50.28533
85502;EEB GOMES CARNEIRO;RUA RIO GRANDE;1344;CENTRO;XAXIM;49.0;33822124;89825000;seriedh5gcarneiro@sed.sc.gov.br;Estaduais;RUA RIO GRANDE, 1344 - CENTRO, XAXIM - SC, 89825000;-26.95989;-52.52628
75434;EEB GONCALVES DIAS;RUA PE. BIAGIO SIMONETTI;574;CENTRO;FRAIBURGO;49.0;35335450;89580000;eebgoncalvesdias@sed.sc.gov.br;Estaduais;RUA PE. BIAGIO SIMONETTI, 574 - CENTRO, FRAIBURGO - SC, 89580000;-27.02377;-50.92344
6548;EEB GOV ADERBAL RAMOS DA SILVA;RUA JOSE FERREIRA;732;SANTO ANTONIO DE PADUA;TUBARÃO;48.0;36319469;88701620;seriedh20arsilva@sed.sc.gov.br;Estaduais;RUA JOSE FERREIRA, 732 - SANTO ANTONIO DE PADUA, TUBARÃO - SC, 88701620;-28.49222;-49.0129
73210;EEB GOV BORNHAUSEN;RUA PASCOAL NAVA;175;CENTRO;ARROIO TRINTA;49.0;35335459;89590000;eebgovbornhausen@sed.sc.gov.br;Estaduais;RUA PASCOAL NAVA, 175 - CENTRO, ARROIO TRINTA - SC, 89590000;-26.93025;-51.33777
15571;EEB GOV CELSO RAMOS;GLORIA;888;GLORIA;BLUMENAU;47.0;33788228;89025300;eebcelsoramos@sed.sc.gov.br;Estaduais;GLORIA, 888 - GLORIA, BLUMENAU - SC, 89025300;-26.9636;-49.06086
41823;EEB GOV CELSO RAMOS;AV SANTA TEREZINHA;105;CENTRO;JOAÇABA;49.0;35279583;89600000;eebgovcelsoramos@sed.sc.gov.br;Estaduais;AV SANTA TEREZINHA, 105 - CENTRO, JOAÇABA - SC, 89600000;-27.1762;-51.5042
11606;EEB GOV HERIBERTO HULSE;RUA GOIAS;0;PROSPERA;CRICIÚMA;48.0;34031293;88813210;eebgovhulse@sed.sc.gov.br;Estaduais;RUA GOIAS, 0 - PROSPERA, CRICIÚMA - SC, 88813210;-28.67893;-49.34443
62472;EEB GOV IRINEU BORNHAUSEN;RUA MARIA CLEMENTINA;535;TRES FRONTEIRAS;DIONÍSIO CERQUEIRA;49.0;36443435;89950000;bornhausen@sed.sc.gov.br;Estaduais;RUA MARIA CLEMENTINA, 535 - TRES FRONTEIRAS, DIONÍSIO CERQUEIRA - SC, 89950000;-26.25735;-53.64105
70890;EEB GOV IRINEU BORNHAUSEN;RUA FAUSTINO MARTINI;0;RIO DO PEIXE;LUIZ ALVES;47.0;33788404;89128000;eebirineubornhausen@sed.sc.gov.br;Estaduais;RUA FAUSTINO MARTINI, 0 - RIO DO PEIXE, LUIZ ALVES - SC, 89128000;-26.74551;-48.84199
78409;EEB GOV IRINEU BORNHAUSEN;RUA BRENO CARDOSO;982;SAO LUIZ;SOMBRIO;48.0;35290397;88960000;seriedh22ibornhausen@sed.sc.gov.br;Estaduais;RUA BRENO CARDOSO, 982 - SAO LUIZ, SOMBRIO - SC, 88960000;-29.10964;-49.62537
4502;EEB GOV IVO SILVEIRA;AV. BARÃO DO RIO BRANCO;0;CENTRO;PALHOÇA;48.0;36656520;88130100;ivosilveira@sed.sc.gov.br;Estaduais;AV. BARÃO DO RIO BRANCO, 0 - CENTRO, PALHOÇA - SC, 88130100;-27.64522;-48.66771
80756;EEB GOV IVO SILVEIRA;RUA SANTA CRUZ;201;AGUAS CLARAS;BRUSQUE;47.0;32518196;88353600;eebis@sed.sc.gov.br;Estaduais;RUA SANTA CRUZ, 201 - AGUAS CLARAS, BRUSQUE - SC, 88353600;-27.14259;-48.90333
73687;EEB GOV LACERDA;RUA PAULO GUELLER;58;SANTA TEREZA;VIDEIRA;49.0;35335472;89560302;eebgovlacerda@sed.sc.gov.br;Estaduais;RUA PAULO GUELLER, 58 - SANTA TEREZA, VIDEIRA - SC, 89560302;-26.99046;-51.18994
111660;EEB GOV PEDRO IVO FIGUEIREDO DE CAMPOS;RUA NASCENTE DO SOL;0;PONTE DO IMARUIM;PALHOÇA;48.0;36655870;88130570;pedroivo@sed.sc.gov.br;Estaduais;RUA NASCENTE DO SOL, 0 - PONTE DO IMARUIM, PALHOÇA - SC, 88130570;-27.62809;-48.65296
93505;EEB GREGORIO MANOEL DE BEM;ESTRADA GERAL RIBEIRAO PEQUENO;0;RIBEIRAO PEQUENO;LAGUNA;48.0;36477740;88794000;eebgmb@sed.sc.gov.br;Estaduais;ESTRADA GERAL RIBEIRAO PEQUENO, 0 - RIBEIRAO PEQUENO, LAGUNA - SC, 88794000;-28.48455;-48.88499
27073;EEB GUILHERME ANDRE DALRI;RUA PADRE LIBERMANN;79;CENTRO;SALETE;47.0;35628447;89196000;seriedh34gdalri@sed.sc.gov.br;Estaduais;RUA PADRE LIBERMANN, 79 - CENTRO, SALETE - SC, 89196000;-26.97727;-49.99958
84352;EEB HELIO LENTZ PUERTA;RUA VERGILIO SABINO DA SILVA;1233;CENTRO;BOM JESUS;49.0;33822076;89824000;diretor84352@sed.sc.gov.br;Estaduais;RUA VERGILIO SABINO DA SILVA, 1233 - CENTRO, BOM JESUS - SC, 89824000;-26.7408;-52.39581
60593;EEB HELIO WASUM;R AFONSO OLIBONI;1303;CENTRO;BANDEIRANTE;49.0;36312940;89905000;seriedh1hwasum@sed.sc.gov.br;Estaduais;R AFONSO OLIBONI, 1303 - CENTRO, BANDEIRANTE - SC, 89905000;-26.76536;-53.64429
57223;EEB HELIO WASUM;R PRES JUSCELINO;1015;CENTRO;SUL BRASIL;49.0;20497557;89855000;seriedh4hwasum@sed.sc.gov.br;Estaduais;R PRES JUSCELINO, 1015 - CENTRO, SUL BRASIL - SC, 89855000;-26.48151;-49.08563
4359;EEB HENRIQUE ESTEFANO KOERICH;RUA 31 DE MARCO;0;PONTE DO IMARUIM;PALHOÇA;48.0;36655874;88130350;estefano@sed.sc.gov.br;Estaduais;RUA 31 DE MARCO, 0 - PONTE DO IMARUIM, PALHOÇA - SC, 88130350;-27.63443;-48.64644
7366;EEB HENRIQUE FONTES;RUA DUQUE DE CAXIAS;770;HUMAITA;TUBARÃO;48.0;36319407;88704269;seriedh20hfontes@sed.sc.gov.br;Estaduais;RUA DUQUE DE CAXIAS, 770 - HUMAITA, TUBARÃO - SC, 88704269;-28.47439;-49.00995
94170;EEB HENRIQUE LAGE;RUA IRINEU BORNHAUSEN;505;CENTRO;IMBITUBA;48.0;36477826;88780000;henriquelage@sed.sc.gov.br;Estaduais;RUA IRINEU BORNHAUSEN, 505 - CENTRO, IMBITUBA - SC, 88780000;-28.24109;-48.66593
44520;EEB HENRIQUE RUPP JUNIOR;RUA SANTA EFIGENIA;695;SENHOR BOM JESUS;CAMPOS NOVOS;49.0;35413358;89620000;seriedh8hrjunior@sed.sc.gov.br;Estaduais;RUA SANTA EFIGENIA, 695 - SENHOR BOM JESUS, CAMPOS NOVOS - SC, 89620000;-27.39801;-51.22979
10669;EEB HERCILIO BEZ;AVENIDA PEDRO ZAPPELINI;186;TERMAS DO GRAVATAL;GRAVATAL;48.0;36319363;88735000;seriedh20hbez@sed.sc.gov.br;Estaduais;AVENIDA PEDRO ZAPPELINI, 186 - TERMAS DO GRAVATAL, GRAVATAL - SC, 88735000;-28.32767;-49.06567
38571;EEB HERCILIO BUCH;ESTRADA DONA FRANCISCA;219;BELA VISTA DO SUL;MAFRA;47.0;36470297;89310000;eebhb@sed.sc.gov.br;Estaduais;ESTRADA DONA FRANCISCA, 219 - BELA VISTA DO SUL, MAFRA - SC, 89310000;-26.16265;-49.82008
15695;EEB HERCILIO DEEKE;JOSE REUTER;581;VELHA CENTRAL;BLUMENAU;47.0;33788272;89046000;herciliodeeke@sed.sc.gov.br;Estaduais;JOSE REUTER, 581 - VELHA CENTRAL, BLUMENAU - SC, 89046000;-26.93337;-49.13387
6556;EEB HERCILIO LUZ;RUA CORONEL CABRAL;169;CENTRO;TUBARÃO;48.0;36319367;88701050;seriedh20hluz@sed.sc.gov.br;Estaduais;RUA CORONEL CABRAL, 169 - CENTRO, TUBARÃO - SC, 88701050;-28.48315;-49.00892
45594;EEB HERIBERTO HULSE;RUA ORESTES FILIPPI;60;CENTRO;IBIAM;49.0;35413347;89652000;eebheribertoh@sed.sc.gov.br;Estaduais;RUA ORESTES FILIPPI, 60 - CENTRO, IBIAM - SC, 89652000;-27.23018;-52.02831
16101;EEB HERMANN HAMANN;AUGUST REINHOLD;350;NOVA ESPERANCA;BLUMENAU;47.0;33788389;89051660;eebhamann@sed.sc.gov.br;Estaduais;AUGUST REINHOLD, 350 - NOVA ESPERANCA, BLUMENAU - SC, 89051660;-26.88441;-49.05023
96261;EEB HERMES FONTES;RUA GOVERNADOR CELSO RAMOS;60;CENTRO;PETROLÂNDIA;47.0;35338803;88430000;hermes_fontes@sed.sc.gov.br;Estaduais;RUA GOVERNADOR CELSO RAMOS, 60 - CENTRO, PETROLÂNDIA - SC, 88430000;-27.53975;-49.70033
155063;EEB HIGINO JOAO PIO;RUA MADAGASCAR;120;BAIRRO DAS NACOES;BALNEÁRIO CAMBORIÚ;47.0;33986178;88338235;eebhiginojoaopio17@sed.sc.gov.br;Estaduais;RUA MADAGASCAR, 120 - BAIRRO DAS NACOES, BALNEÁRIO CAMBORIÚ - SC, 88338235;-26.9799;-48.64991
744;EEB HILDA TEODORO VIEIRA;R LAURO LINHARES;560;TRINDADE;FLORIANÓPOLIS;48.0;36655722;88036000;hildatheodoro@sed.sc.gov.br;Estaduais;R LAURO LINHARES, 560 - TRINDADE, FLORIANÓPOLIS - SC, 88036000;-27.58421;-48.52515
91391;EEB HOLANDO MARCELLINO GONCALVES;RUA JOSÉ THEODORO RIBEIRO;689;ILHA DA FIGUEIRA;JARAGUÁ DO SUL;47.0;32769472;89258000;homago@sed.sc.gov.br;Estaduais;RUA JOSÉ THEODORO RIBEIRO, 689 - ILHA DA FIGUEIRA, JARAGUÁ DO SUL - SC, 89258000;-26.48983;-49.0556
91235;EEB HORACIO NUNES;RUA PARANA;749;CENTRO;IRINEÓPOLIS;47.0;36274231;89440000;horacionunes@sed.sc.gov.br;Estaduais;RUA PARANA, 749 - CENTRO, IRINEÓPOLIS - SC, 89440000;-26.24095;-50.80129
55301;EEB HUMBERTO DE ALENCAR CASTELO BRANCO;LINHA PLANALTINA;0;INTERIOR;CAIBI;49.0;34624034;89888000;eebcastelobranco@sed.sc.gov.br;Estaduais;LINHA PLANALTINA, 0 - INTERIOR, CAIBI - SC, 89888000;-27.0753;-53.25012
11312;EEB HUMBERTO DE CAMPOS;RUA JOSE GAIDZINSKI;39;PIO CORREA;CRICIÚMA;48.0;34031315;88811515;eebhcampos@sed.sc.gov.br;Estaduais;RUA JOSE GAIDZINSKI, 39 - PIO CORREA, CRICIÚMA - SC, 88811515;-28.67798;-49.35925
13773;EEB HUMBERTO H HOFFMANN;RODOVIA JOSE SPILLERE;941;CARAVAGGIO;NOVA VENEZA;48.0;34031157;88868000;eebhumbertohh@sed.sc.gov.br;Estaduais;RODOVIA JOSE SPILLERE, 941 - CARAVAGGIO, NOVA VENEZA - SC, 88868000;-28.67132;-49.4687
60704;EEB HUMBERTO MACHADO;LINHA IPE-POPI;0;INTERIOR;ITAPIRANGA;49.0;36788559;89896000;eebhumbertom@sed.sc.gov.br;Estaduais;LINHA IPE-POPI, 0 - INTERIOR, ITAPIRANGA - SC, 89896000;-27.16564;-53.71124
11339;EEB IGNACIO STAKOWSKI;ROD SC 443 KM1;3410;PRESIDENTE VARGAS;IÇARA;48.0;34031134;88820000;eebignacios@sed.sc.gov.br;Estaduais;ROD SC 443 KM1, 3410 - PRESIDENTE VARGAS, IÇARA - SC, 88820000;-28.67974;-49.31924
1350;EEB ILDEFONSO LINHARES;RUA VEREADOR OSVALDO BITTENCOURT;206;CARIANOS;FLORIANÓPOLIS;48.0;36656353;88047700;ildefonso@sed.sc.gov.br;Estaduais;RUA VEREADOR OSVALDO BITTENCOURT, 206 - CARIANOS, FLORIANÓPOLIS - SC, 88047700;-27.6655;-48.53721
9628;EEB IMACULADO CORACAO DE MARIA;RUA JOSE MARCON;53;CENTRO;PEDRAS GRANDES;48.0;36319379;88720000;seriedh20icmaria@sed.sc.gov.br;Estaduais;RUA JOSE MARCON, 53 - CENTRO, PEDRAS GRANDES - SC, 88720000;-28.43618;-49.18605
29955;EEB INDUSTRIAL DE LAGES;AV DOM PEDRO II;2555;VILA NOVA;LAGES;49.0;32292704;88503100;seriedh27lages@sed.sc.gov.br;Estaduais;AV DOM PEDRO II, 2555 - VILA NOVA, LAGES - SC, 88503100;-27.82536;-50.32528
74187;EEB INSPETOR EURICO RAUEN;RUA JOSEFINA HENN;195;SAO CRISTOVAO;VIDEIRA;49.0;35335492;89562068;eebeuricorauen@sed.sc.gov.br;Estaduais;RUA JOSEFINA HENN, 195 - SAO CRISTOVAO, VIDEIRA - SC, 89562068;-27.01391;-51.14367
949;EEB INTENDENTE JOSE FERNANDES;RODOVIA JOAO GUALBERTO SOARES;324;INGLESES;FLORIANÓPOLIS;48.0;36656792;88058300;intendente@sed.sc.gov.br;Estaduais;RODOVIA JOAO GUALBERTO SOARES, 324 - INGLESES, FLORIANÓPOLIS - SC, 88058300;-27.44256;-48.40258
40592;EEB IRENE REVA ZADOROSNY;RUA DO COLONO;0;NOVA CULTURA;PAPANDUVA;47.0;996555814;89370000;eefirz@sed.sc.gov.br;Estaduais;RUA DO COLONO, 0 - NOVA CULTURA, PAPANDUVA - SC, 89370000;-26.71286;-50.12959
2054;EEB IRINEU BORNHAUSEN;RUA VEREADOR BATISTA PEREIRA;306;ESTREITO;FLORIANÓPOLIS;48.0;36655691;88075600;irineu@sed.sc.gov.br;Estaduais;RUA VEREADOR BATISTA PEREIRA, 306 - ESTREITO, FLORIANÓPOLIS - SC, 88075600;-27.58259;-48.58653
54577;EEB IRINEU BORNHAUSEN;RUA PEDRO GUILHERME SIMON;70;CENTRO;ÁGUAS DE CHAPECÓ;49.0;34624099;89883000;seriedh29ibornhausen@sed.sc.gov.br;Estaduais;RUA PEDRO GUILHERME SIMON, 70 - CENTRO, ÁGUAS DE CHAPECÓ - SC, 89883000;-27.07566;-52.98459
49727;EEB IRMA ANUNCIATA SPERANDIO;RUA DO COMERCIO;406;CENTRO;PERITIBA;49.0;34826128;89750000;seriedh6asperandio@sed.sc.gov.br;Estaduais;RUA DO COMERCIO, 406 - CENTRO, PERITIBA - SC, 89750000;-27.37233;-51.90394
12416;EEB IRMA EDVIGES;RUA ANGELA MELLO;113;BAIRRO MINA UNIAO;CRICIÚMA;48.0;34031605;88806620;eebedviges@sed.sc.gov.br;Estaduais;RUA ANGELA MELLO, 113 - BAIRRO MINA UNIAO, CRICIÚMA - SC, 88806620;-28.69306;-49.42804
38067;EEB IRMA GERTRUDES;RUA ARAQUARI 125;125;VILA NOVA;PONTE ALTA;49.0;32896381;88550000;seriedh27igertrudes@sed.sc.gov.br;Estaduais;RUA ARAQUARI 125, 125 - VILA NOVA, PONTE ALTA - SC, 88550000;-27.47183;-50.38057
74837;EEB IRMA IRENE;R PEDRO DRISSEN;166;CENTRO;SANTA CECÍLIA;49.0;32442133;89540000;seriedh11iirene@sed.sc.gov.br;Estaduais;R PEDRO DRISSEN, 166 - CENTRO, SANTA CECÍLIA - SC, 89540000;-26.96223;-50.42327
89850;EEB IRMA MARIA FELICITAS;AGENOR FABIO GOMES;100;ALTO DAS PALMEIRAS;CANOINHAS;47.0;36274218;89460104;eebimf@sed.sc.gov.br;Estaduais;AGENOR FABIO GOMES, 100 - ALTO DAS PALMEIRAS, CANOINHAS - SC, 89460104;-26.18453;-50.40001
4510;EEB IRMA MARIA TERESA;AV ANICETO ZACCHI;298;PONTE DO IMARUIM;PALHOÇA;48.0;36657589;88130300;mariateresa@sed.sc.gov.br;Estaduais;AV ANICETO ZACCHI, 298 - PONTE DO IMARUIM, PALHOÇA - SC, 88130300;-27.63486;-48.64584
42749;EEB IRMA WIENFRIDA;RUA SEVERIANO GUERREIRO;609;CENTRO;CATANDUVAS;49.0;35279568;89670000;eebiwienfrida@sed.sc.gov.br;Estaduais;RUA SEVERIANO GUERREIRO, 609 - CENTRO, CATANDUVAS - SC, 89670000;-27.07229;-51.66017
46760;EEB IRMAO JOAQUIM;RUA SAO JOSE;157;CENTRO;IBICARÉ;49.0;3527-9569;89640000;eebirjoaquim@sed.sc.gov.br;Estaduais;RUA SAO JOSE, 157 - CENTRO, IBICARÉ - SC, 89640000;-27.09119;-51.36696
71560;EEB IRMAO LEO;CONSELHEIRO MAFRA;750;CENTRO;CAÇADOR;49.0;35616402;89500127;seriedh10ileo@sed.sc.gov.br;Estaduais;CONSELHEIRO MAFRA, 750 - CENTRO, CAÇADOR - SC, 89500127;-26.7743;-51.00831
46566;EEB ISABEL DA SILVA TELLES;JULIA DA SILVA;410;ALTO IRANI;IRANI;49.0;34826070;89680000;eebisabeltelles@sed.sc.gov.br;Estaduais;JULIA DA SILVA, 410 - ALTO IRANI, IRANI - SC, 89680000;-27.0181;-51.88193
32204;EEB ISIDORO SILVA;LAGOA DA ESTIVA;320;DISTRITO;ANITA GARIBALDI;49.0;999241683;88590000;seriedh27isilva@sed.sc.gov.br;Estaduais;LAGOA DA ESTIVA, 320 - DISTRITO, ANITA GARIBALDI - SC, 88590000;-27.72378;-51.00747
67202;EEB ITAJUBA;RUA PROFESSORA BERNARDINA GHISSI;201;INTERIOR;DESCANSO;49.0;36312953;89910000;eebitajuba@sed.sc.gov.br;Estaduais;RUA PROFESSORA BERNARDINA GHISSI, 201 - INTERIOR, DESCANSO - SC, 89910000;-26.89554;-53.50476
16969;EEB IVO D AQUINO;R JOSE HONORATO MULLER;259;COLONINHA;GASPAR;47.0;33788395;89110170;eebivodaquino@sed.sc.gov.br;Estaduais;R JOSE HONORATO MULLER, 259 - COLONINHA, GASPAR - SC, 89110170;-26.92712;-48.96575
77445;EEB JACINTO MACHADO;AV PE HERVAL FONTANELLA;1063;CENTRO;JACINTO MACHADO;48.0;35290131;88950000;eebjmachado@sed.sc.gov.br;Estaduais;AV PE HERVAL FONTANELLA, 1063 - CENTRO, JACINTO MACHADO - SC, 88950000;-28.99909;-49.75685
102490;EEB JACÓ ANDERLE;FRANCISCO FAUSTO MARTINS;717;VARGEM GRANDE;FLORIANÓPOLIS;48.0;36655634;88052810;dhjacoanderle@sed.sc.gov.br;Estaduais;FRANCISCO FAUSTO MARTINS, 717 - VARGEM GRANDE, FLORIANÓPOLIS - SC, 88052810;-27.45136;-48.45457
61972;EEB JACOB MARAN;DISTRITO DE JORGE LACERDA;1;JORGE LACERDA;DIONÍSIO CERQUEIRA;49.0;36443445;89950000;jacomaran@sed.sc.gov.br;Estaduais;DISTRITO DE JORGE LACERDA, 1 - JORGE LACERDA, DIONÍSIO CERQUEIRA - SC, 89950000;-26.29521;-53.5473
1325;EEB JANUARIA TEIXEIRA DA ROCHA;RUA DA CAPELA;1234;CAMPECHE;FLORIANÓPOLIS;48.0;36655625;88063400;januaria@sed.sc.gov.br;Estaduais;RUA DA CAPELA, 1234 - CAMPECHE, FLORIANÓPOLIS - SC, 88063400;-27.67591;-48.48387
21725;EEB JOAO ALFREDO MOREIRA;AV LINDOLFO DE FREITAS LEDOUX;7783;VILA DA GLORIA;SÃO FRANCISCO DO SUL;47.0;34812847;89240000;eebjoaoalfredo@sed.sc.gov.br;Estaduais;AV LINDOLFO DE FREITAS LEDOUX, 7783 - VILA DA GLORIA, SÃO FRANCISCO DO SUL - SC, 89240000;-26.21635;-48.66313
55930;EEB JOAO BATISTA FLECK;LINHA SANTO ANTAO;0;INTERIOR;SAUDADES;49.0;20497788;89868000;eebjbf@sed.sc.gov.br;Estaduais;LINHA SANTO ANTAO, 0 - INTERIOR, SAUDADES - SC, 89868000;-26.92629;-53.004
21431;EEB JOAO COLIN;RUA BOTAFOGO;618;ITAUM;JOINVILLE;47.0;34611285;89210050;eebjoaocolin@sed.sc.gov.br;Estaduais;RUA BOTAFOGO, 618 - ITAUM, JOINVILLE - SC, 89210050;-26.32662;-48.83911
77852;EEB JOAO COLODEL;RUA USILIO TONETTO;1160;VILA MANENTI;TURVO;48.0;35290072;88930000;seriedh22jcolodel@sed.sc.gov.br;Estaduais;RUA USILIO TONETTO, 1160 - VILA MANENTI, TURVO - SC, 88930000;-28.92452;-49.67392
11932;EEB JOAO DAGOSTIM;ROD LUIZ ROSSO;10601;QUARTA LINHA;CRICIÚMA;48.0;34031611;88812351;eebjoaodagostim@sed.sc.gov.br;Estaduais;ROD LUIZ ROSSO, 10601 - QUARTA LINHA, CRICIÚMA - SC, 88812351;-28.78602;-49.36523
78417;EEB JOAO DOS SANTOS AREAO;RUA XV DE NOVEMBRO;161;CENTRO;SANTA ROSA DO SUL;48.0;35290236;88965000;seriedh22jsareao@sed.sc.gov.br;Estaduais;RUA XV DE NOVEMBRO, 161 - CENTRO, SANTA ROSA DO SUL - SC, 88965000;-29.13508;-49.71312
101648;EEB JOAO DURVAL MULLER;RUA CARL KAUN;60;VELHA CENTRAL;BLUMENAU;47.0;33788703;89046625;eebjdurval@sed.sc.gov.br;Estaduais;RUA CARL KAUN, 60 - VELHA CENTRAL, BLUMENAU - SC, 89046625;-26.93608;-49.15054
12122;EEB JOAO FRASSETTO;AV MONTE NEGRO;0;SANTA LUZIA;CRICIÚMA;48.0;34031272;88807211;eebjoaofrassetto@sed.sc.gov.br;Estaduais;AV MONTE NEGRO, 0 - SANTA LUZIA, CRICIÚMA - SC, 88807211;-28.69781;-49.42591
71137;EEB JOAO GAYA;R BALTAZAR SCHMITT;235;CENTRO;LUIZ ALVES;47.0;33788685;89128000;eebjoaogaya@sed.sc.gov.br;Estaduais;R BALTAZAR SCHMITT, 235 - CENTRO, LUIZ ALVES - SC, 89128000;-26.72493;-48.93124
94048;EEB JOAO GUIMARAES CABRAL;RUA SANTANA;709;VILA NOVA;IMBITUBA;48.0;36477815;88780000;seriedh19jcabral@sed.sc.gov.br;Estaduais;RUA SANTANA, 709 - VILA NOVA, IMBITUBA - SC, 88780000;-28.26256;-48.68897
88692;EEB JOAO JOSE DE S CABRAL;RUA BARAO DO RIO BRANCO;59;SOSSEGO;CANOINHAS;47.0;36274070;89462252;eebjjsc@sed.sc.gov.br;Estaduais;RUA BARAO DO RIO BRANCO, 59 - SOSSEGO, CANOINHAS - SC, 89462252;-26.1766;-50.39872
39560;EEB JOAO KUCHLER;ESTRADA GERAL DE RIO DA ANTA;1163;RIO DA ANTA;SANTA TEREZINHA;47.0;35628507;89199000;seriedh33jkuchler@sed.sc.gov.br;Estaduais;ESTRADA GERAL DE RIO DA ANTA, 1163 - RIO DA ANTA, SANTA TEREZINHA - SC, 89199000;-26.65465;-49.98939
38440;EEB JOAO PAULO I;SERGIPE;195;SAO JOAO;CORREIA PINTO;49.0;32431447;88535000;seriedh27jpaulo1@sed.sc.gov.br;Estaduais;SERGIPE, 195 - SAO JOAO, CORREIA PINTO - SC, 88535000;-27.58991;-50.36486
86177;EEB JOAO ROBERTO MOREIRA;RUA BRASIL;680;CENTRO;SÃO DOMINGOS;49.0;33822114;89835000;eebjoaoroberto@sed.sc.gov.br;Estaduais;RUA BRASIL, 680 - CENTRO, SÃO DOMINGOS - SC, 89835000;-26.55843;-52.52639
4200;EEB JOAO SILVEIRA;AV BOM JESUS DE NAZARE;1014;ARIRIU;PALHOÇA;48.0;36655877;88135100;joaosilveira@sed.sc.gov.br;Estaduais;AV BOM JESUS DE NAZARE, 1014 - ARIRIU, PALHOÇA - SC, 88135100;-27.67328;-48.67636
7145;EEB JOAO TEIXEIRA NUNES;RUA SAO JOAO SN;0;MORROTES;TUBARÃO;48.0;36319387;88704100;seriedh20jtnunes@sed.sc.gov.br;Estaduais;RUA SAO JOAO SN, 0 - MORROTES, TUBARÃO - SC, 88704100;-28.48026;-49.02808
26891;EEB JOAO TOLENTINO JUNIOR;RUA ROBERTO JUNGKLAUS;98;CENTRO;PRESIDENTE NEREU;47.0;33578413;89184000;seriedh14jtjunior@sed.sc.gov.br;Estaduais;RUA ROBERTO JUNGKLAUS, 98 - CENTRO, PRESIDENTE NEREU - SC, 89184000;-27.28077;-49.39143
83925;EEB JOAO WINCKLER;RUA MARANHAO;1397;CASTELO BRANCO;XANXERÊ;49.0;33822151;89820000;seriedh5jwinckler@sed.sc.gov.br;Estaduais;RUA MARANHAO, 1397 - CASTELO BRANCO, XANXERÊ - SC, 89820000;-26.89001;-52.38912
61301;EEB JOAO XXIII;RUA SÃO FRANCISCO;119;CENTRO;MARAVILHA;49.0;36646576;89874000;seriedh2joao23@sed.sc.gov.br;Estaduais;RUA SÃO FRANCISCO, 119 - CENTRO, MARAVILHA - SC, 89874000;-26.77125;-53.18788
80802;EEB JOAO XXIII;FLORIANOPOLIS;1017;PRIMEIRO DE MAIO;BRUSQUE;47.0;32518168;88353501;eebj23@sed.sc.gov.br;Estaduais;FLORIANOPOLIS, 1017 - PRIMEIRO DE MAIO, BRUSQUE - SC, 88353501;-27.12773;-48.89844
47333;EEB JOAQUIM D'AGOSTINI;R SETE DE SETEMBRO;92;CENTRO;LACERDÓPOLIS;49.0;35279590;89660000;eebjoaquimd@sed.sc.gov.br;Estaduais;R SETE DE SETEMBRO, 92 - CENTRO, LACERDÓPOLIS - SC, 89660000;-27.26822;-51.57465
2267;EEB JOAQUIM JOAO CARDOSO;RUA LUIZ DALMOLIN;0;PRADO;BIGUAÇU;48.0;36655866;88160014;joaquimcardoso@sed.sc.gov.br;Estaduais;RUA LUIZ DALMOLIN, 0 - PRADO, BIGUAÇU - SC, 88160014;-27.48663;-48.64832
84441;EEB JOAQUIM NABUCO;RUA CORONEL FIDENCIO DE SOUZA MELLO;243;CENTRO;XANXERÊ;49.0;33822148;89820000;seriedh5jnabuco@sed.sc.gov.br;Estaduais;RUA CORONEL FIDENCIO DE SOUZA MELLO, 243 - CENTRO, XANXERÊ - SC, 89820000;-26.87453;-52.4057
12041;EEB JOAQUIM RAMOS;R DESEMBARGADOR PEDRO SILVA,;907;MICHEL;CRICIÚMA;48.0;34031279;88803100;eebjramos@sed.sc.gov.br;Estaduais;R DESEMBARGADOR PEDRO SILVA,, 907 - MICHEL, CRICIÚMA - SC, 88803100;-28.68862;-49.36919
102369;EEB JONAS R COELHO NEVES;RUA DENIS DIDEROT;125;FIDELIS;BLUMENAU;47.0;33788682;89060285;eebjonasneves@sed.sc.gov.br;Estaduais;RUA DENIS DIDEROT, 125 - FIDELIS, BLUMENAU - SC, 89060285;-26.85;-49.07268
76295;EEB JORDAO BERNARDO DA ROSA;RODOVIA ISAIAS EUGENIO PEREIRA;100;SANGA DA AREIA;ARARANGUÁ;48.0;35240839;88902710;eebjbrosa@sed.sc.gov.br;Estaduais;RODOVIA ISAIAS EUGENIO PEREIRA, 100 - SANGA DA AREIA, ARARANGUÁ - SC, 88902710;-28.99136;-49.54669
61344;EEB JORGE LACERDA;RUA GUARANI;383;CENTRO;FLOR DO SERTÃO;49.0;36646563;89878000;seriedh2jlacerda@sed.sc.gov.br;Estaduais;RUA GUARANI, 383 - CENTRO, FLOR DO SERTÃO - SC, 89878000;-26.77804;-53.34592
54690;EEB JORGE LACERDA;RUA JOÃO TREVISOL;0;LINHA SÃO BRAZ;PALMITOS;49.0;31995598;89887000;eebjlacerda@sed.sc.gov.br;Estaduais;RUA JOÃO TREVISOL, 0 - LINHA SÃO BRAZ, PALMITOS - SC, 89887000;-27.14533;-53.2326
77860;EEB JORGE SCHUTZ;AVENIDA MUNICIPAL;1129;CENTRO;TURVO;48.0;35290147;88930000;eebjschutz@sed.sc.gov.br;Estaduais;AVENIDA MUNICIPAL, 1129 - CENTRO, TURVO - SC, 88930000;-28.93206;-49.67743
98620;EEB JORGE ZIPPERER;CARLOS SPEICHER;211;VILA NOVA;RIO NEGRINHO;47.0;36470333;89295000;seriedh25jzipperer@sed.sc.gov.br;Estaduais;CARLOS SPEICHER, 211 - VILA NOVA, RIO NEGRINHO - SC, 89295000;-26.24251;-49.51006
1830;EEB JORNALISTA JAIRO CALLADO;PROFESSORA ANTONIETA DE BARROS;581;ESTREITO;FLORIANÓPOLIS;48.0;36655677;88070700;jairocallado@sed.sc.gov.br;Estaduais;PROFESSORA ANTONIETA DE BARROS, 581 - ESTREITO, FLORIANÓPOLIS - SC, 88070700;-27.58897;-48.58441
7994;EEB JOSE ANTUNES MATTOS;RUA OCTAVIO DALSASSO;168;PINDOTIBA;ORLEANS;48.0;36319424;88870000;eefjmatos@sed.sc.gov.br;Estaduais;RUA OCTAVIO DALSASSO, 168 - PINDOTIBA, ORLEANS - SC, 88870000;-28.4146;-49.22943
2062;EEB JOSE BOITEUX;RUA MARECHAL CÂMARA;182;ESTREITO;FLORIANÓPOLIS;48.0;36655661;88070240;joseboiteux@sed.sc.gov.br;Estaduais;RUA MARECHAL CÂMARA, 182 - ESTREITO, FLORIANÓPOLIS - SC, 88070240;-27.59102;-48.57846
16446;EEB JOSE BONIFACIO;R FREDERICO WEEGE;146;CENTRO;POMERODE;47.0;33788262;89107000;eebjosebonifacio@sed.sc.gov.br;Estaduais;R FREDERICO WEEGE, 146 - CENTRO, POMERODE - SC, 89107000;-26.73724;-49.17798
6610;EEB JOSE BOTEGA;RUA JOSE BOTEGA;1071;SAO CRISTOVAO;TUBARÃO;48.0;36319416;88703400;seriedh20jbotega@sed.sc.gov.br;Estaduais;RUA JOSE BOTEGA, 1071 - SAO CRISTOVAO, TUBARÃO - SC, 88703400;-28.53416;-49.06106
33073;EEB JOSE CESARIO BRASIL;R PROFESSOR AURELIO SPAGNOLI;83;CENTRO;CELSO RAMOS;49.0;35413391;88598000;eebjosecb@sed.sc.gov.br;Estaduais;R PROFESSOR AURELIO SPAGNOLI, 83 - CENTRO, CELSO RAMOS - SC, 88598000;-27.63299;-51.33668
24490;EEB JOSE CLEMENTE PEREIRA;RUA SETE DE SETEMBRO;157;CENTRO;JOSÉ BOITEUX;47.0;33578991;89145000;seriedh14jcpereira@sed.sc.gov.br;Estaduais;RUA SETE DE SETEMBRO, 157 - CENTRO, JOSÉ BOITEUX - SC, 89145000;-26.96023;-49.62893
12483;EEB JOSE DO PATROCINIO;RENATO MELILLO;81;CENTRO;SIDERÓPOLIS;48.0;34031162;88860000;eebjpatrocinio@sed.sc.gov.br;Estaduais;RENATO MELILLO, 81 - CENTRO, SIDERÓPOLIS - SC, 88860000;-28.60128;-49.42407
56758;EEB JOSE MARCOLINO ECKERT;RUA SANTO ANTONIO;659;SANTO ANTONIO;PINHALZINHO;49.0;20499640;89870000;seriedh2jmeckert@sed.sc.gov.br;Estaduais;RUA SANTO ANTONIO, 659 - SANTO ANTONIO, PINHALZINHO - SC, 89870000;-26.84957;-52.99275
4537;EEB JOSE MARIA CARDOSO DA VEIGA;R NOSSA SRA. DO ROSARIO;448;ENSEADA DE BRITO;PALHOÇA;48.0;36655729;88138800;cardosodaveiga@sed.sc.gov.br;Estaduais;R NOSSA SRA. DO ROSARIO, 448 - ENSEADA DE BRITO, PALHOÇA - SC, 88138800;-27.78362;-48.63303
3301;EEB JOSE MATIAS ZIMMERMANN;RUA JOSE MATIAS ZIMMERMANN;68;SERTAO DO MARUIM;SÃO JOSÉ;48.0;36654422;88122200;zimmermann@sed.sc.gov.br;Estaduais;RUA JOSE MATIAS ZIMMERMANN, 68 - SERTAO DO MARUIM, SÃO JOSÉ - SC, 88122200;-27.5995;-48.68329
48160;EEB JOSE PIEREZAN;RUA SANTA TERESINHA;0;INTERIOR;CONCÓRDIA;49.0;34826249;89720000;seriedh6jpierezan@sed.sc.gov.br;Estaduais;RUA SANTA TERESINHA, 0 - INTERIOR, CONCÓRDIA - SC, 89720000;-27.23261;-52.02624
44555;EEB JOSE ZANCHETTI;RODOVIA DEJANDIR DALPASQUALE SC 284,KM240;0;INTERIOR;ABDON BATISTA;49.0;35413340;89636000;eebjzanchetti@sed.sc.gov.br;Estaduais;RODOVIA DEJANDIR DALPASQUALE SC 284,KM240, 0 - INTERIOR, ABDON BATISTA - SC, 89636000;-27.60995;-51.0258
74160;EEB JOSEFINA CALDEIRA DE ANDRADE;RUA JOSE BONALDO;130;FARROUPILHA;VIDEIRA;49.0;35335490;89560550;eebjosefinacladeira@sed.sc.gov.br;Estaduais;RUA JOSE BONALDO, 130 - FARROUPILHA, VIDEIRA - SC, 89560550;-26.99765;-51.15301
39470;EEB JOVINO LIMA;RUA RAMIRO RUTHES;0;ESPIGAO DO BUGRE;MAFRA;47.0;36470307;89307235;eebjovinolima@sed.sc.gov.br;Estaduais;RUA RAMIRO RUTHES, 0 - ESPIGAO DO BUGRE, MAFRA - SC, 89307235;-26.17765;-49.81683
88625;EEB JULIA BALEOLI ZANIOLO;RUA JACOB SCHEUER JUNIOR;152;INDUSTRIAL II;CANOINHAS;47.0;36274220;89466422;eebjuliazaniolo@sed.sc.gov.br;Estaduais;RUA JACOB SCHEUER JUNIOR, 152 - INDUSTRIAL II, CANOINHAS - SC, 89466422;-26.1831;-50.35685
16233;EEB JULIA LOPES DE ALMEIDA;R VENEZUELA,;127;PONTA AGUDA;BLUMENAU;47.0;33788381;89050310;eebjulialopes@sed.sc.gov.br;Estaduais;R VENEZUELA,, 127 - PONTA AGUDA, BLUMENAU - SC, 89050310;-26.91425;-49.06436
13757;EEB JULIETA T GONCALVES;RUA ANTONIO MICHELS;0;SAO BENTO BAIXO;NOVA VENEZA;48.0;34031596;88867000;eebjgoncalves@sed.sc.gov.br;Estaduais;RUA ANTONIO MICHELS, 0 - SAO BENTO BAIXO, NOVA VENEZA - SC, 88867000;-28.71033;-49.50634
67873;EEB JULIO VICENTE DE PELEGRIN;LINHA GUATAPAREMA;0;CAMPO;GUARACIABA;49.0;99494972;89920000;eebjuliovp@sed.sc.gov.br;Estaduais;LINHA GUATAPAREMA, 0 - CAMPO, GUARACIABA - SC, 89920000;-26.59841;-53.52193
91863;EEB JULIUS KARSTEN;RUA WALDEMAR RAU;222;WALDEMAR RAU;JARAGUÁ DO SUL;47.0;32769448;89254260;juliuskarsten@sed.sc.gov.br;Estaduais;RUA WALDEMAR RAU, 222 - WALDEMAR RAU, JARAGUÁ DO SUL - SC, 89254260;-26.46374;-49.11712
1457;EEB JUREMA CAVALLAZZI;PROFESSOR ANIBAL NUNES PIRES;0;JOSE MENDES;FLORIANÓPOLIS;48.0;36655675;88021015;juremacavalazzi@sed.sc.gov.br;Estaduais;PROFESSOR ANIBAL NUNES PIRES, 0 - JOSE MENDES, FLORIANÓPOLIS - SC, 88021015;-27.61198;-48.5435
88293;EEB KYRANA LACERDA;RUA SETE DE SETEMBRO;850;CENTRO;VARGEÃO;49.0;33822111;89690000;seriedh5klacerda@sed.sc.gov.br;Estaduais;RUA SETE DE SETEMBRO, 850 - CENTRO, VARGEÃO - SC, 89690000;-26.86238;-52.15184
57215;EEB LA SALLE;R ALMIRANTE BARROSO;571;CENTRO;SERRA ALTA;49.0;20497618;89871000;seriedh4lsalle@sed.sc.gov.br;Estaduais;R ALMIRANTE BARROSO, 571 - CENTRO, SERRA ALTA - SC, 89871000;-26.72708;-53.04528
99074;EEB LEBON REGIS;RUA CEL BENTO DE AMORIM;314;CENTRO;CAMPO ALEGRE;47.0;36470322;89294000;eeblr@sed.sc.gov.br;Estaduais;RUA CEL BENTO DE AMORIM, 314 - CENTRO, CAMPO ALEGRE - SC, 89294000;-26.19191;-49.26509
74845;EEB LEIA MATILDE GERBER;AV NAKAYAMA;1199;MARCILIANO FERNANDES;SANTA CECÍLIA;49.0;34123055;89540000;eeblmg@sed.sc.gov.br;Estaduais;AV NAKAYAMA, 1199 - MARCILIANO FERNANDES, SANTA CECÍLIA - SC, 89540000;-26.97407;-50.41548
698;EEB LEONOR DE BARROS;RUA PASTOR WILLIAN RICHARD SCHISLER FILHO;801;ITACORUBI;FLORIANÓPOLIS;48.0;36655699;88034100;leonordebarros@sed.sc.gov.br;Estaduais;RUA PASTOR WILLIAN RICHARD SCHISLER FILHO, 801 - ITACORUBI, FLORIANÓPOLIS - SC, 88034100;-27.57579;-48.50841
24899;EEB LEOPOLDO JACOBSEN;RUA PREFEITO BERTOLDO JACOBSEN;1581;SEMINÁRIO;TAIÓ;47.0;35628453;89190000;seriedh34ljacobsen@sed.sc.gov.br;Estaduais;RUA PREFEITO BERTOLDO JACOBSEN, 1581 - SEMINÁRIO, TAIÓ - SC, 89190000;-27.11887;-50.01142
19216;EEB LEOPOLDO KOPROWSKI;RUA BELO HORIZONTE;35;ALTO BENEDITO NOVO;BENEDITO NOVO;47.0;33850419;89124000;eebleopoldo@sed.sc.gov.br;Estaduais;RUA BELO HORIZONTE, 35 - ALTO BENEDITO NOVO, BENEDITO NOVO - SC, 89124000;-26.7783;-49.40998
31631;EEB LEOVEGILDO ESMERIO DA SILVA;SALTO DOS MARIANOS;0;SALTO DOS MARIANOS;SÃO JOSÉ DO CERRITO;;;88570000;seriedh27lsilva@sed.sc.gov.br;Estaduais;SALTO DOS MARIANOS, 0 - SALTO DOS MARIANOS, SÃO JOSÉ DO CERRITO - SC, 88570000;-27.54461;-50.86136
27561;EEB LETICIA POSSAMAI;RUA JOSE VALENTE DE CAMPOS;0;ATERRADO;POUSO REDONDO;47.0;35628464;89172000;seriedh34lpossamai@sed.sc.gov.br;Estaduais;RUA JOSE VALENTE DE CAMPOS, 0 - ATERRADO, POUSO REDONDO - SC, 89172000;-27.26072;-49.93145
28100;EEB LINDO SARDAGNA;RUA ALBERTO KOGLIN;3712;CENTRO;DONA EMMA;47.0;33578412;89155000;seriedh14lsardagna@sed.sc.gov.br;Estaduais;RUA ALBERTO KOGLIN, 3712 - CENTRO, DONA EMMA - SC, 89155000;-26.98848;-49.71759
6564;EEB LINO PESSOA;R GEREMIAS BRISTOT;361;MONTE CASTELO;TUBARÃO;48.0;36319393;88702560;seriedh20lpessoa@sed.sc.gov.br;Estaduais;R GEREMIAS BRISTOT, 361 - MONTE CASTELO, TUBARÃO - SC, 88702560;-28.49692;-49.02927
30465;EEB LUCIA FERNANDES LOPES;RUA SAO LUIZ GONZAGA;0;SANTA CATARINA;LAGES;49.0;32898231;88512350;eebluciaflopes@sed.sc.gov.br;Estaduais;RUA SAO LUIZ GONZAGA, 0 - SANTA CATARINA, LAGES - SC, 88512350;-27.83575;-50.34475
98663;EEB LUIZ BERNARDO OLSEN;BERNARDO OLSEN NETO;669;VOLTA GRANDE;RIO NEGRINHO;47.0;36470329;89298000;seriedh25lbolsen@sed.sc.gov.br;Estaduais;BERNARDO OLSEN NETO, 669 - VOLTA GRANDE, RIO NEGRINHO - SC, 89298000;-26.26584;-49.5154
25402;EEB LUIZ BERTOLI;RUA CORONEL FEDDERSEN;1356;CENTRO;TAIÓ;47.0;35628466;89190000;seriedh34lbertoli@sed.sc.gov.br;Estaduais;RUA CORONEL FEDDERSEN, 1356 - CENTRO, TAIÓ - SC, 89190000;-27.11773;-50.00348
84450;EEB LUIZ CORADI;R VICTOR KONDER;1690;PRIMO TACCA;XANXERÊ;49.0;33822144;89820000;seriedh5lcoradi@sed.sc.gov.br;Estaduais;R VICTOR KONDER, 1690 - PRIMO TACCA, XANXERÊ - SC, 89820000;-26.86971;-52.41206
90140;EEB LUIZ DAVET;RUA LUIZ DAVET;1193;CENTRO;MAJOR VIEIRA;47.0;36274226;89480000;eebluizdavet@sed.sc.gov.br;Estaduais;RUA LUIZ DAVET, 1193 - CENTRO, MAJOR VIEIRA - SC, 89480000;-26.36819;-50.3286
16179;EEB LUIZ DELFINO;RUA SAO JOSE;222;CENTRO;BLUMENAU;47.0;33788375;89010220;eebluizdelfino@sed.sc.gov.br;Estaduais;RUA SAO JOSE, 222 - CENTRO, BLUMENAU - SC, 89010220;-26.9171;-49.07367
12297;EEB LUIZ LAZZARIN;RUA LUIZ CAROLI;525;VILA ISABEL;CRICIÚMA;48.0;34031349;88817530;eefluizlazzarin@sed.sc.gov.br;Estaduais;RUA LUIZ CAROLI, 525 - VILA ISABEL, CRICIÚMA - SC, 88817530;-28.66966;-49.42628
85294;EEB LUIZ LUNARDI;ESTRADA GERAL VILA TIGRE;0;INTERIOR;XAXIM;49.0;33822357;89825000;seriedh5llunardi@sed.sc.gov.br;Estaduais;ESTRADA GERAL VILA TIGRE, 0 - INTERIOR, XAXIM - SC, 89825000;38.89037;-77.03196
109932;EEB LUIZ TRAMONTIN;RUA BONIFACIO BACK;533;SANTA ISABEL;FORQUILHINHA;48.0;34031129;88850000;eebltramontim@sed.sc.gov.br;Estaduais;RUA BONIFACIO BACK, 533 - SANTA ISABEL, FORQUILHINHA - SC, 88850000;-28.75136;-49.4863
74853;EEB MACHADO DE ASSIS;CLAUDIANO ALVES DA ROCHA;340;CENTRO;TIMBÓ GRANDE;49.0;35615999;89545000;seriedh10massis@sed.sc.gov.br;Estaduais;CLAUDIANO ALVES DA ROCHA, 340 - CENTRO, TIMBÓ GRANDE - SC, 89545000;-26.61574;-50.67175
61107;EEB MADRE BENVENUTA;RUA ENCANTADO;255;CENTRO;SÃO JOÃO DO OESTE;49.0;36361091;89897000;eebmbenvenuta@sed.sc.gov.br;Estaduais;RUA ENCANTADO, 255 - CENTRO, SÃO JOÃO DO OESTE - SC, 89897000;-27.09759;-53.59483
74195;EEB MADRE TEREZINHA LEONI;RUA ARLINDO LONGO;825;RIO DAS PEDRAS;VIDEIRA;49.0;35335491;89563406;eebmadreterezinha@sed.sc.gov.br;Estaduais;RUA ARLINDO LONGO, 825 - RIO DAS PEDRAS, VIDEIRA - SC, 89563406;-27.00509;-51.07093
27197;EEB MAESTRO HEITOR VILLA LOBOS;RUA JOAO GARLINI;185;TAIOZINHO;RIO DO CAMPO;47.0;35628504;89198000;seriedh34hvlobos@sed.sc.gov.br;Estaduais;RUA JOAO GARLINI, 185 - TAIOZINHO, RIO DO CAMPO - SC, 89198000;-26.94449;-50.13808
43800;EEB MAJOR CIPRIANO R DE ALMEIDA;AV. ARTUR ADOLFO SANTOS;407;PARQUE DAS ANDORINHAS;ZORTÉA;49.0;35413375;89633000;eebmajorcra@sed.sc.gov.br;Estaduais;AV. ARTUR ADOLFO SANTOS, 407 - PARQUE DAS ANDORINHAS, ZORTÉA - SC, 89633000;-27.45733;-51.55392
37354;EEB MAJOR OTACILIO COUTO;ALVARO PUCCI;57;CENTRO;CAMPO BELO DO SUL;49.0;32896359;88580000;seriedh27ocouto@sed.sc.gov.br;Estaduais;ALVARO PUCCI, 57 - CENTRO, CAMPO BELO DO SUL - SC, 88580000;-27.90004;-50.76783
34320;EEB MANOEL CRUZ;MANOEL RODRIGUES DO NASCIMENTO;0;JARDIM MINUANO;SÃO JOAQUIM;49.0;32338409;88600000;manoelcruz@sed.sc.gov.br;Estaduais;MANOEL RODRIGUES DO NASCIMENTO, 0 - JARDIM MINUANO, SÃO JOAQUIM - SC, 88600000;-28.29267;-49.94616
36951;EEB MANOEL DUTRA BESSA;JOAO OZOL;96;ESQUINA;URUBICI;49.0;32784598;88650000;dutrabessa@sed.sc.gov.br;Estaduais;JOAO OZOL, 96 - ESQUINA, URUBICI - SC, 88650000;-27.99062;-49.57981
40940;EEB MANOEL ESTEVAO FURTADO;RUA TENENTE ERNESTO GREINERT;1319;SAO CRISTOVAO;PAPANDUVA;47.0;36470343;89370000;seriedh25mfurtado@sed.sc.gov.br;Estaduais;RUA TENENTE ERNESTO GREINERT, 1319 - SAO CRISTOVAO, PAPANDUVA - SC, 89370000;-26.39572;-50.16481
76970;EEB MANOEL GOMES BALTAZAR;RUA PEDRO ROCHA;111;CENTRO;MARACAJÁ;48.0;35290085;88915000;eebmgbaltzar@sed.sc.gov.br;Estaduais;RUA PEDRO ROCHA, 111 - CENTRO, MARACAJÁ - SC, 88915000;-28.86084;-49.45256
69809;EEB MANOEL HENRIQUE DE ASSIS;AVENIDA NEREU RAMOS;105;CENTRO;PENHA;47.0;33986048;88385000;eebmanoelhdeassis@sed.sc.gov.br;Estaduais;AVENIDA NEREU RAMOS, 105 - CENTRO, PENHA - SC, 88385000;-26.77471;-48.66317
33154;EEB MANOEL PEREIRA DE MEDEIROS;AV. MANOEL PEREIRA DE MEDEIROS;619;CENTRO;URUPEMA;49.0;32338398;88625000;manoelpereira@sed.sc.gov.br;Estaduais;AV. MANOEL PEREIRA DE MEDEIROS, 619 - CENTRO, URUPEMA - SC, 88625000;-27.95645;-49.87929
103144;EEB MANOEL RIBEIRO;RUA ALFREDO LOPES DE OLIVEIRA;640;CENTRO;MONTE CASTELO;47.0;36470337;89380000;seriedh25mribeiro@sed.sc.gov.br;Estaduais;RUA ALFREDO LOPES DE OLIVEIRA, 640 - CENTRO, MONTE CASTELO - SC, 89380000;-26.45832;-50.22492
82392;EEB MANOEL VICENTE;RUA JOAQUIM SILVEIRA;114;CENTRO;MAJOR GERCINO;48.0;36655589;88260000;eebmvg@sed.sc.gov.br;Estaduais;RUA JOAQUIM SILVEIRA, 114 - CENTRO, MAJOR GERCINO - SC, 88260000;-27.40952;-48.94469
35432;EEB MAR EURICO GASPAR DUTRA;RUA LAURO VALÊNCIO DA SILVA;0;SAO LUIZ;CURITIBANOS;49.0;34123043;89520000;eebeuricogd@sed.sc.gov.br;Estaduais;RUA LAURO VALÊNCIO DA SILVA, 0 - SAO LUIZ, CURITIBANOS - SC, 89520000;-27.27115;-50.58235
53490;EEB MARCOLINA RODRIGUES DA SILVA;RUA JOAO VICENTE COSTA;131;DISTRITO MARECHAL BORMANN;CHAPECÓ;49.0;33222571;89816150;eebmrsilva@sed.sc.gov.br;Estaduais;RUA JOAO VICENTE COSTA, 131 - DISTRITO MARECHAL BORMANN, CHAPECÓ - SC, 89816150;-27.10165;-52.63908
48178;EEB MARCOLINO PEDROSO;RUA DO SABER;0;NOVA ESTRELA;ARABUTÃ;49.0;34489026;89740000;eebmarcolinopedroso@sed.sc.gov.br;Estaduais;RUA DO SABER, 0 - NOVA ESTRELA, ARABUTÃ - SC, 89740000;-27.15117;-52.20556
